{"type": "FeatureCollection", "features": [{"type": "Feature", "geometry": {"type": "Point", "coordinates": [-0.3189623, 51.5517548]}, "properties": {"addr:housenumber": "3", "addr:street": "The Parade, Sudbury Heights Avenue", "amenity": "pharmacy", "dispensing": "yes", "name": "Shilun's Pharmacy", "phone": "+44 20 8902 4830"}}, {"type": "Feature", "geometry": {"type": "Point", "coordinates": [-0.3159253, 51.5554815]}, "properties": {"addr:city": "Wembley", "addr:housenumber": "820", "addr:postcode": "HA0 3EL", "addr:street": "Harrow Road", "amenity": "pharmacy", "dispensing": "yes", "healthcare": "pharmacy", "name": "C.K. Pharmacy", "opening_hours": "Mo-Fr 09:00-19:00; Sa 10:00-14:00; Su off", "phone": "+44 20 8904 2305", "website": "http://www.ksc1t.co.uk"}}, {"type": "Feature", "geometry": {"type": "Point", "coordinates": [-0.3357604, 51.5575874]}, "properties": {"addr:city": "Harrow", "addr:housenumber": "157", "addr:postcode": "HA1 3QN", "addr:street": "Greenford Road", "amenity": "pharmacy", "name": "Curapharm Chemist", "old_name": "Dallas dispensing chemist;Boots", "operator": "Boots UK Limited", "shop": "chemist", "source:addr": "FHRS Open Data", "wheelchair": "yes"}}, {"type": "Feature", "geometry": {"type": "Point", "coordinates": [-0.3216197, 51.5666342]}, "properties": {"amenity": "pharmacy", "dispensing": "yes", "healthcare": "pharmacy", "name": "Vantage Dispensing"}}, {"type": "Feature", "geometry": {"type": "Point", "coordinates": [-0.3391271, 51.5509115]}, "properties": {"addr:housenumber": "1318", "addr:street": "Greenford Road", "amenity": "pharmacy", "dispensing": "yes", "name": "Bright Health Pharmacy"}}, {"type": "Feature", "geometry": {"type": "Point", "coordinates": [-0.3544798, 51.5189016]}, "properties": {"amenity": "pharmacy", "dispensing": "yes", "healthcare": "pharmacy", "name": "Kings Pharmacy"}}, {"type": "Feature", "geometry": {"type": "Point", "coordinates": [-0.3731775, 51.5618016]}, "properties": {"addr:housenumber": "336", "addr:street": "Eastcote Lane", "amenity": "pharmacy", "dispensing": "yes", "name": "Kings Pharmacy", "phone": "+44 20 8422 1909"}}, {"type": "Feature", "geometry": {"type": "Point", "coordinates": [-0.3458887, 51.5421903]}, "properties": {"addr:city": "Greenford", "addr:county": "Middlesex", "addr:housenumber": "386", "addr:postcode": "UB6 8PU", "addr:street": "Oldfield Lane North", "amenity": "pharmacy", "fhrs:id": "1032512", "name": "Parade Pharmacy", "source:addr": "FHRS Open Data"}}, {"type": "Feature", "geometry": {"type": "Point", "coordinates": [-0.1609632, 51.3656066]}, "properties": {"amenity": "pharmacy", "healthcare": "pharmacy", "name": "Medipharmacy"}}, {"type": "Feature", "geometry": {"type": "Point", "coordinates": [-0.3350774, 51.5088908]}, "properties": {"addr:city": "London", "addr:housenumber": "83", "addr:postcode": "W7 3ST", "addr:street": "Uxbridge Road", "addr:suburb": "Hanwell", "amenity": "pharmacy", "check_date": "2024-02-20", "dispensing": "yes", "fhrs:id": "1034089", "healthcare": "pharmacy", "name": "Church Pharmacy", "phone": "+44 20 8567 2922", "source:addr": "FHRS Open Data"}}, {"type": "Feature", "geometry": {"type": "Point", "coordinates": [-0.1808644, 51.3698642]}, "properties": {"addr:city": "Sutton", "addr:housenumber": "39", "addr:postcode": "SM1 3AT", "addr:street": "Erskine Road", "amenity": "pharmacy", "dispensing": "yes", "healthcare": "pharmacy", "name": "SG Barai Pharmacy"}}, {"type": "Feature", "geometry": {"type": "Point", "coordinates": [-0.1714801, 51.3717385]}, "properties": {"addr:city": "Carshalton", "addr:postcode": "SM5 2RE", "addr:street": "Wrythe Lane", "amenity": "pharmacy", "dispensing": "yes", "healthcare": "pharmacy", "name": "Kamsons Pharmacy", "source": "survey;code-point open", "survey:date": "2018-11-22"}}, {"type": "Feature", "geometry": {"type": "Point", "coordinates": [-0.2166091, 51.3580823]}, "properties": {"amenity": "pharmacy", "dispensing": "yes", "healthcare": "pharmacy", "name": "Frith's Chemist"}}, {"type": "Feature", "geometry": {"type": "Point", "coordinates": [-0.0823783, 51.470918]}, "properties": {"addr:city": "London", "addr:country": "GB", "addr:housenumber": "84", "addr:postcode": "SE5 8PQ", "addr:street": "Vestry Road", "amenity": "pharmacy", "check_date": "2026-02-19", "fhrs:id": "362833", "healthcare": "pharmacy", "name": "V E Lettsom Pharmacy", "phone": "+44 20 7701 9250", "source:addr": "FHRS Open Data", "website": "https://www.lettsompharmacy.co.uk/"}}, {"type": "Feature", "geometry": {"type": "Point", "coordinates": [-0.3328055, 51.5346557]}, "properties": {"amenity": "pharmacy"}}, {"type": "Feature", "geometry": {"type": "Point", "coordinates": [-0.1777997, 51.4183326]}, "properties": {"addr:city": "London", "addr:housenumber": "129", "addr:postcode": "SW19 2HR", "addr:street": "High Street Colliers Wood", "amenity": "pharmacy", "dispensing": "yes", "fhrs:id": "801004", "healthcare": "pharmacy", "name": "AP Chemist"}}, {"type": "Feature", "geometry": {"type": "Point", "coordinates": [-0.1391261, 51.3596275]}, "properties": {"addr:city": "Wallington", "addr:housenumber": "150", "addr:postcode": "SM6 9BS", "addr:street": "Stafford Road", "amenity": "pharmacy", "healthcare": "pharmacy", "name": "Stafford Pharmacy", "opening_hours": "Mo-Fr 09:00-18:30; Sa 09:00-13:00; Su off", "operator": "Medipharmacy Group", "source": "survey", "website": "https://www.nhs.uk/Services/pharmacies/Overview/DefaultView.aspx?id=6698"}}, {"type": "Feature", "geometry": {"type": "Point", "coordinates": [-0.1340619, 51.3534016]}, "properties": {"addr:city": "Wallington", "addr:housenumber": "4", "addr:postcode": "SM6 9DA", "addr:street": "Mollison Square", "amenity": "pharmacy", "brand": "Day Lewis Pharmacy", "brand:wikidata": "Q62563772", "dispensing": "yes", "healthcare": "pharmacy", "name": "Day Lewis Pharmacy", "website": "https://www.daylewis.co.uk/pharmacy-page/wallington-roundshaw-surrey/"}}, {"type": "Feature", "geometry": {"type": "Point", "coordinates": [-0.1361307, 51.465528]}, "properties": {"amenity": "pharmacy", "dispensing": "yes", "healthcare": "pharmacy", "name": "Kamsons Pharmacy"}}, {"type": "Feature", "geometry": {"type": "Point", "coordinates": [-0.1310695, 51.4642728]}, "properties": {"amenity": "pharmacy", "dispensing": "yes", "healthcare": "pharmacy", "name": "Pearl Pharmacy", "note": "Open until 10pm", "wheelchair": "yes"}}, {"type": "Feature", "geometry": {"type": "Point", "coordinates": [-0.1298321, 51.4305542]}, "properties": {"addr:city": "London", "addr:housenumber": "240", "addr:street": "Streatham High Road", "addr:suburb": "Streatham", "amenity": "pharmacy", "check_date": "2023-01-31", "healthcare": "pharmacy", "level": "0", "name": "Touchwood Pharmacy", "website": "https://www.touchwoodpharmacy.com/"}}, {"type": "Feature", "geometry": {"type": "Point", "coordinates": [0.0020946, 51.3924102]}, "properties": {"amenity": "pharmacy", "brand": "Rowlands Pharmacy", "brand:wikidata": "Q62663235", "healthcare": "pharmacy", "name": "Rowlands Pharmacy", "opening_hours": "Mo-Fr 09:00-05:30, Sa 09:00-13:00", "website": "https://rowlandspharmacy.co.uk/find-local-pharmacy#!/l/bromley/121-westmoreland-road/1395"}}, {"type": "Feature", "geometry": {"type": "Point", "coordinates": [-0.3270092, 51.5035878]}, "properties": {"amenity": "pharmacy", "check_date": "2025-11-14", "dispensing": "yes", "drive_through": "no", "name": "Pyramid Pharmacy", "opening_hours": "Mo-Fr 09:00-18:30; Sa 09:00-13:00; Su off", "website": "https://www.pyramidpharmacy.co.uk"}}, {"type": "Feature", "geometry": {"type": "Point", "coordinates": [-0.0836755, 51.5295582]}, "properties": {"addr:city": "London", "addr:housenumber": "73", "addr:postcode": "N1 6BT", "addr:street": "Pitfield Street", "amenity": "pharmacy", "fhrs:id": "470676", "healthcare": "pharmacy", "name": "Judd's Pharmacy", "opening_hours": "Mo-We,Fr 09:00-18:30, Th 09:00-13:00, Sa 09:30-13:00", "phone": "+44 20 7253 2944", "wheelchair": "yes"}}, {"type": "Feature", "geometry": {"type": "Point", "coordinates": [-0.3985667, 51.3650437]}, "properties": {"amenity": "pharmacy", "created_by": "JOSM", "wheelchair": "limited"}}, {"type": "Feature", "geometry": {"type": "Point", "coordinates": [-0.1240166, 51.5787615]}, "properties": {"addr:city": "London", "addr:housenumber": "11", "addr:postcode": "N8 8DU", "addr:street": "The Broadway", "amenity": "pharmacy", "branch": "London Crouch End", "brand": "Boots", "brand:wikidata": "Q6123139", "check_date": "2025-08-09", "contact:website": "http://www.boots.com/stores/788-london-crouch-end-n8-8du", "dispensing": "yes", "fhrs:id": "422916", "fhrs:local_authority_id": "PI/000129448", "healthcare": "pharmacy", "name": "Boots", "operator": "Boots UK Limited", "ref": "788", "shop": "chemist", "source:addr": "FHRS Open Data"}}, {"type": "Feature", "geometry": {"type": "Point", "coordinates": [-0.1240567, 51.5800874]}, "properties": {"addr:city": "London", "addr:housenumber": "49-51", "addr:postcode": "N8 8DT", "addr:street": "The Broadway", "amenity": "pharmacy", "healthcare": "pharmacy", "name": "Petter Pharmacy"}}, {"type": "Feature", "geometry": {"type": "Point", "coordinates": [-0.0981903, 51.5145339]}, "properties": {"addr:city": "London", "addr:housename": "Paternoster House", "addr:housenumber": "65", "addr:postcode": "EC4M 8AB", "addr:street": "St. Paul's Churchyard", "amenity": "pharmacy", "brand": "Superdrug", "brand:wikidata": "Q7643261", "brand:wikipedia": "en:Superdrug", "contact:website": "https://www.superdrug.com/store/london-st-paul%27s", "healthcare": "pharmacy", "name": "Superdrug", "wheelchair": "yes", "wheelchair:description": "Step-free from both sides. Pre-order prescription collection only. (No Hearing Loop provision)"}}, {"type": "Feature", "geometry": {"type": "Point", "coordinates": [-0.0568886, 51.5141644]}, "properties": {"addr:city": "London", "addr:housenumber": "4", "addr:postcode": "E1 2PR", "addr:street": "Watney Market", "amenity": "pharmacy", "fhrs:id": "362308", "healthcare": "pharmacy", "level": "0", "name": "DMB Chemist"}}, {"type": "Feature", "geometry": {"type": "Point", "coordinates": [-0.1907156, 51.5154107]}, "properties": {"addr:city": "London", "addr:housenumber": "55", "addr:street": "Westbourne Grove", "amenity": "pharmacy", "healthcare": "pharmacy", "name": "Nashi Pharmacy", "opening_hours": "Mo-We,Fr 09:00-19:00; Th 09:00-18:00; Sa 09:30-17:00", "phone": "+44 20 7229 3559", "website": "https://nashi-pharmacy.business.site/"}}, {"type": "Feature", "geometry": {"type": "Point", "coordinates": [-0.1874337, 51.5163792]}, "properties": {"amenity": "pharmacy", "healthcare": "pharmacy"}}, {"type": "Feature", "geometry": {"type": "Point", "coordinates": [-0.1624822, 51.3549247]}, "properties": {"addr:city": "Carshalton", "addr:housenumber": "140", "addr:postcode": "SM5 3JG", "addr:street": "Stanley Park Road", "amenity": "pharmacy", "dispensing": "yes", "drive_through": "no", "healthcare": "pharmacy", "name": "H E Matthews Pharmacy", "source": "survey", "survey:date": "2018-09-29"}}, {"type": "Feature", "geometry": {"type": "Point", "coordinates": [-0.1225219, 51.4720118]}, "properties": {"addr:city": "London", "addr:housenumber": "219", "addr:postcode": "SW9 9BE", "addr:street": "Clapham Road", "amenity": "pharmacy", "check_date": "2025-12-21", "dispensing": "yes", "drive_through": "no", "healthcare": "pharmacy", "name": "Harfleur Pharmacy"}}, {"type": "Feature", "geometry": {"type": "Point", "coordinates": [-0.0833827, 51.5610097]}, "properties": {"addr:city": "London", "addr:housenumber": "2-3", "addr:postcode": "N16 0TA", "addr:street": "Albion Road", "amenity": "pharmacy", "fhrs:id": "468735", "healthcare": "pharmacy", "name": "Safedale Pharmacy", "wheelchair": "yes"}}, {"type": "Feature", "geometry": {"type": "Point", "coordinates": [-0.0785831, 51.5623014]}, "properties": {"addr:city": "London", "addr:housenumber": "100", "addr:postcode": "N16 0AP", "addr:street": "Stoke Newington Church Street", "amenity": "pharmacy", "check_date": "2025-05-29", "fhrs:id": "469105", "healthcare": "pharmacy", "name": "Safedale", "opening_hours": "Mo-Tu, Th-Fr 09:00-19:00; Sa 09:00-17:30; We 09:00-18:00", "operator": "Safedale Ltd", "payment:american_express": "no", "payment:credit_cards": "yes", "payment:debit_cards": "yes", "source:addr": "FHRS Open Data", "wheelchair": "yes"}}, {"type": "Feature", "geometry": {"type": "Point", "coordinates": [-0.0734295, 51.5621185]}, "properties": {"addr:city": "London", "addr:housenumber": "190", "addr:postcode": "N16 7JD", "addr:street": "Stoke Newington High Street", "amenity": "pharmacy", "fhrs:id": "469072", "healthcare": "pharmacy", "name": "Benjamin Chemist", "wheelchair": "yes"}}, {"type": "Feature", "geometry": {"type": "Point", "coordinates": [-0.3501578, 51.5514752]}, "properties": {"addr:city": "Northolt", "addr:county": "Middlesex", "addr:housenumber": "47A-47B", "addr:postcode": "UB5 4RR", "addr:street": "Oldfields Circus", "amenity": "pharmacy", "dispensing": "yes", "fhrs:id": "1032545", "healthcare": "pharmacy", "operator": "Wellcare Pharmacy"}}, {"type": "Feature", "geometry": {"type": "Point", "coordinates": [-0.0074982, 51.4887603]}, "properties": {"addr:city": "London", "addr:housenumber": "143", "addr:postcode": "E14 3DN", "addr:street": "Manchester Road", "amenity": "pharmacy", "dispensing": "yes", "fhrs:id": "362515", "healthcare": "pharmacy", "name": "Cubitt Town Pharmacy", "phone": "+44 20 7987 1487"}}, {"type": "Feature", "geometry": {"type": "Point", "coordinates": [-0.2250257, 51.368573]}, "properties": {"amenity": "pharmacy", "brand": "Boots", "brand:wikidata": "Q6123139", "healthcare": "pharmacy", "name": "Boots", "opening_hours": "Mo-Fr 08:30-18:30; Sa 09:00-12:00", "phone": "+44 20 8644 8139", "website": "https://www.boots.com/stores/5961-north-cheam-health-centre-sm3-8ep"}}, {"type": "Feature", "geometry": {"type": "Point", "coordinates": [-0.17544, 51.630385]}, "properties": {"addr:city": "London", "addr:housenumber": "1263-1275", "addr:postcode": "N20 9HS", "addr:street": "High Road", "amenity": "pharmacy", "branch": "Whetstone 1261-1275 High Road", "brand": "Boots", "brand:wikidata": "Q6123139", "brand:wikipedia": "en:Boots (company)", "contact:phone": "+44 20 8343 8596", "contact:website": "http://www.boots.com/stores/6509-whetstone-high-road-n20-9hs", "dispensing": "yes", "fhrs:id": "1617065", "healthcare": "pharmacy", "name": "Boots", "operator": "Boots UK Limited", "ref": "6509", "shop": "chemist", "source:addr": "FHRS Open Data", "wheelchair": "yes"}}, {"type": "Feature", "geometry": {"type": "Point", "coordinates": [-0.2150702, 51.3547652]}, "properties": {"addr:city": "Sutton", "addr:housenumber": "11", "addr:postcode": "SM2 7AY", "addr:street": "Upper Mulgrave Road", "addr:suburb": "Cheam", "addr:village": "Cheam", "amenity": "pharmacy", "dispensing": "yes", "drive_through": "no", "healthcare": "pharmacy", "name": "Mulgrave Road Pharmacy", "opening_hours": "Mo-Fr 09:00-17:00; Sa-Su off", "source": "survey", "survey:date": "2018-11-17"}}, {"type": "Feature", "geometry": {"type": "Point", "coordinates": [0.3041638, 51.4899019]}, "properties": {"addr:city": "Chafford Hundred", "addr:housename": "Drake House", "addr:postcode": "RM16 6RX", "addr:street": "Drake Road", "addr:unit": "1", "amenity": "pharmacy", "contact:phone": "+44 137 548 0579", "healthcare": "pharmacy", "name": "Armada Pharmacy", "opening_hours": "Mo-Fr 09:00-18:00; Sa 09:00-13:00", "website": "https://www.nhs.uk/services/pharmacy/armada-pharmacy/FNT96/contact-details-and-opening-times", "wheelchair": "yes"}}, {"type": "Feature", "geometry": {"type": "Point", "coordinates": [-0.1899825, 51.4894164]}, "properties": {"addr:housenumber": "233-235", "addr:street": "Old Brompton Road", "amenity": "pharmacy", "healthcare": "pharmacy", "name": "Zafash", "opening_hours": "24/7", "phone": "+44 20 7373 2798"}}, {"type": "Feature", "geometry": {"type": "Point", "coordinates": [-0.1746128, 51.3846004]}, "properties": {"addr:city": "Carshalton", "addr:housenumber": "370", "addr:postcode": "SM5 1HA", "addr:street": "Middleton Road", "amenity": "pharmacy", "brand": "Boots", "brand:wikidata": "Q6123139", "brand:wikipedia": "en:Boots UK", "dispensing": "yes", "healthcare": "pharmacy", "name": "Boots", "source": "survey", "survey:date": "2018-11-20"}}, {"type": "Feature", "geometry": {"type": "Point", "coordinates": [-0.1737786, 51.384412]}, "properties": {"addr:city": "Carshalton", "addr:housenumber": "398", "addr:postcode": "SM5 1JF", "addr:street": "Green Wrythe Lane", "amenity": "pharmacy", "dispensing": "yes", "healthcare": "pharmacy", "name": "Anna Pharmacy", "source": "survey", "survey:date": "2018-11-20"}}, {"type": "Feature", "geometry": {"type": "Point", "coordinates": [-0.0770832, 51.5352208]}, "properties": {"addr:city": "London", "addr:housenumber": "255", "addr:postcode": "E2 8AN", "addr:street": "Kingsland Road", "amenity": "pharmacy", "fhrs:id": "469219", "healthcare": "pharmacy", "name": "Clarks Healthcare"}}, {"type": "Feature", "geometry": {"type": "Point", "coordinates": [-0.049473, 51.5283611]}, "properties": {"addr:city": "London", "addr:housenumber": "80", "addr:postcode": "E2 0PG", "addr:street": "Roman Road", "amenity": "pharmacy", "fhrs:id": "362576", "healthcare": "pharmacy", "name": "Britannia Pharmacy", "note": "Late night chemist", "wheelchair": "limited"}}, {"type": "Feature", "geometry": {"type": "Point", "coordinates": [-0.059066, 51.4645227]}, "properties": {"amenity": "pharmacy", "healthcare": "pharmacy"}}, {"type": "Feature", "geometry": {"type": "Point", "coordinates": [0.0123796, 51.5189029]}, "properties": {"addr:city": "London", "addr:housenumber": "21", "addr:postcode": "E16 4HP", "addr:street": "Hermit Road", "addr:suburb": "Canning Town", "alt_name": "Sherman Chemist", "amenity": "pharmacy", "dispensing": "yes", "fhrs:id": "805360", "fhrs:local_authority_id": "68920/0021/0/000", "healthcare": "pharmacy", "level": "0", "name": "Osbon Pharmacy"}}, {"type": "Feature", "geometry": {"type": "Point", "coordinates": [-0.0824823, 51.4966866]}, "properties": {"amenity": "pharmacy", "healthcare": "pharmacy", "name": "Harfleur Pharmacy"}}, {"type": "Feature", "geometry": {"type": "Point", "coordinates": [-0.0854665, 51.4509697]}, "properties": {"amenity": "pharmacy", "dispensing": "yes", "healthcare": "pharmacy", "name": "Rumsey Pharmacy"}}, {"type": "Feature", "geometry": {"type": "Point", "coordinates": [-0.1442671, 51.4957712]}, "properties": {"addr:city": "London", "addr:housename": "Main Concourse Victoria Station", "addr:postcode": "SW1V 1JT", "addr:street": "Terminus Place", "alt_name": "Boots Midnight Pharmacy", "amenity": "pharmacy", "branch": "London 42B Victoria Station", "brand": "Boots", "brand:wikidata": "Q6123139", "brand:wikipedia": "en:Boots UK", "check_date": "2025-07-12", "contact:phone": "+44 20 7834 0676", "contact:website": "http://www.boots.com/stores/1544-london-victoria-station-sw1v-1jt", "dispensing": "yes", "fhrs:id": "1243386", "healthcare": "pharmacy", "name": "Boots", "opening_hours": "Mo-Fr 07:00-00:00; Sa 08:00-00:00; Su 09:00-21:00", "ref": "1544", "wheelchair": "yes"}}, {"type": "Feature", "geometry": {"type": "Point", "coordinates": [-0.2656072, 51.5017624]}, "properties": {"addr:city": "London", "addr:floor": "G", "addr:housenumber": "257", "addr:postcode": "W4 5DG", "addr:street": "Acton Lane", "addr:suburb": "Chiswick", "amenity": "pharmacy", "check_date": "2025-10-11", "dispensing": "yes", "drive_through": "no", "email": "alisha.fxy41@nhs.net", "healthcare": "pharmacy", "level": "0", "name": "Alisha Pharmacy", "opening_hours": "Mo-Fr 09:00-18:30; We 09:00-17:00; Sa 09:00-13:00", "payment:cash": "yes", "payment:contactless": "yes", "payment:credit_cards": "yes", "payment:debit_cards": "yes", "phone": "+44 20 8994 5177", "website": "https://www.alishapharmacy.co.uk"}}, {"type": "Feature", "geometry": {"type": "Point", "coordinates": [-0.1558068, 51.440189]}, "properties": {"addr:city": "London", "addr:housenumber": "256", "addr:postcode": "SW17 7AW", "addr:street": "Balham High Road", "amenity": "pharmacy", "brand": "Day Lewis Pharmacy", "brand:wikidata": "Q62563772", "healthcare": "pharmacy", "name": "Day Lewis Pharmacy", "website": "https://www.daylewis.co.uk/pharmacyFinder.php"}}, {"type": "Feature", "geometry": {"type": "Point", "coordinates": [-0.1202675, 51.454244]}, "properties": {"amenity": "pharmacy", "brand": "Day Lewis Pharmacy", "brand:wikidata": "Q62563772", "dispensing": "yes", "healthcare": "pharmacy", "name": "Day Lewis Pharmacy", "website": "http://www.daylewisplc.co.uk/index"}}, {"type": "Feature", "geometry": {"type": "Point", "coordinates": [-0.3779045, 51.426347]}, "properties": {"addr:city": "Hampton", "addr:housenumber": "29", "addr:postcode": "TW12 3YH", "addr:street": "Tangley Park", "amenity": "pharmacy", "dispensing": "yes", "drive_through": "no", "healthcare": "pharmacy", "name": "The Hampton Pharmacy", "phone": "+44 203 8220192", "website": "https://www.thehamptonpharmacy.co.uk"}}, {"type": "Feature", "geometry": {"type": "Point", "coordinates": [-0.0951737, 51.5407273]}, "properties": {"amenity": "pharmacy", "dispensing": "yes", "healthcare": "pharmacy", "name": "Apex Pharmacy"}}, {"type": "Feature", "geometry": {"type": "Point", "coordinates": [-0.0965676, 51.5399919]}, "properties": {"amenity": "pharmacy", "check_date": "2024-09-12", "dispensing": "yes", "healthcare": "pharmacy", "name": "Savemain Pharmacy"}}, {"type": "Feature", "geometry": {"type": "Point", "coordinates": [-0.1008878, 51.5372774]}, "properties": {"amenity": "pharmacy", "check_date": "2023-07-28", "dispensing": "yes", "healthcare": "pharmacy", "name": "Essex Chemist & Opticians", "shop": "optician"}}, {"type": "Feature", "geometry": {"type": "Point", "coordinates": [-0.175179, 51.4934414]}, "properties": {"addr:city": "London", "addr:housenumber": "35-37", "addr:street": "Old Brompton Road", "amenity": "pharmacy", "check_date": "2024-03-31", "healthcare": "pharmacy", "name": "Harleys Pharmacy", "opening_hours": "Mo-Fr 09:00-20:00; Sa 09:00-19:00; Su 10:30-18:30", "phone": "+44 20 7589 8788", "wheelchair": "yes"}}, {"type": "Feature", "geometry": {"type": "Point", "coordinates": [-0.2709354, 51.5067461]}, "properties": {"addr:city": "London", "addr:housenumber": "17", "addr:postcode": "W3 8PU", "addr:street": "Church Road", "addr:town": "Acton", "alt_name": "Dillons Chemist", "amenity": "pharmacy", "dispensing": "yes", "fhrs:id": "1032941", "fhrs:local_authority_id": "PI000130613", "healthcare": "pharmacy", "name": "Dillons Pharmacy"}}, {"type": "Feature", "geometry": {"type": "Point", "coordinates": [-0.1778092, 51.4924901]}, "properties": {"addr:city": "London", "addr:housenumber": "92", "addr:postcode": "SW7 3LQ", "addr:street": "Old Brompton Road", "amenity": "pharmacy", "check_date": "2024-09-09", "dispensing": "yes", "drive_through": "no", "healthcare": "pharmacy", "name": "Dajani Pharmacy", "opening_hours": "Mo-Fr 09:00-22:00; Sa 09:00-21:00; Su 10:00-20:00", "phone": "+44 20 7589 8263", "website": "https://www.dajanipharmacy.com/"}}, {"type": "Feature", "geometry": {"type": "Point", "coordinates": [-0.3061388, 51.5498767]}, "properties": {"amenity": "pharmacy", "dispensing": "yes", "fixme": "I don't remember running into a pharmacy  in hte middle of the road here!.  If there is one in the health centre, does it  handle external prescriptions?  If not, it is misleading.  In this location, it would be nhs=yes."}}, {"type": "Feature", "geometry": {"type": "Point", "coordinates": [-0.2972306, 51.5453923]}, "properties": {"amenity": "pharmacy", "dispensing": "yes", "healthcare": "pharmacy", "image": "yes", "name": "Jade Pharmacy"}}, {"type": "Feature", "geometry": {"type": "Point", "coordinates": [-0.2979123, 51.5415741]}, "properties": {"amenity": "pharmacy", "name": "Niks Pharmacy"}}, {"type": "Feature", "geometry": {"type": "Point", "coordinates": [-0.2608302, 51.5410908]}, "properties": {"addr:city": "London", "addr:housenumber": "23", "addr:postcode": "NW10 8LY", "addr:street": "Hillside", "addr:suburb": "Stonebridge", "amenity": "pharmacy", "dispensing": "yes", "fhrs:id": "533343", "name": "S&S Chemists", "phone": "+44 20 8965 3562", "source:addr": "FHRS Open Data"}}, {"type": "Feature", "geometry": {"type": "Point", "coordinates": [-0.3056942, 51.5625741]}, "properties": {"amenity": "pharmacy", "dispensing": "yes"}}, {"type": "Feature", "geometry": {"type": "Point", "coordinates": [-0.0963483, 51.5368353]}, "properties": {"amenity": "pharmacy", "dispensing": "yes", "healthcare": "pharmacy", "name": "Benzpharm"}}, {"type": "Feature", "geometry": {"type": "Point", "coordinates": [-0.0408319, 51.3989391]}, "properties": {"amenity": "pharmacy", "dispensing": "yes", "healthcare": "pharmacy", "name": "Macks Pharmacy", "phone": "+44 20 8650 0087"}}, {"type": "Feature", "geometry": {"type": "Point", "coordinates": [-0.0424149, 51.398893]}, "properties": {"amenity": "pharmacy", "dispensing": "yes", "healthcare": "pharmacy", "name": "Lotus Pharmacy", "opening_hours": "Mo-Fr 09:00-18:00; Sa 09:00-16:00"}}, {"type": "Feature", "geometry": {"type": "Point", "coordinates": [-0.1798385, 51.5251912]}, "properties": {"addr:city": "London", "addr:housenumber": "33", "addr:postcode": "W9 1SY", "addr:street": "Clifton Road", "amenity": "pharmacy", "branch": "London Maida Vale", "brand": "Boots", "brand:wikidata": "Q6123139", "brand:wikipedia": "en:Boots UK", "check_date": "2024-11-04", "contact:phone": "+44 20 7286 2155", "contact:website": "http://www.boots.com/stores/1428-london-maida-vale-w9-1sy", "dispensing": "yes", "fhrs:id": "410870", "fhrs:local_authority_id": "00055/0033/0/000", "healthcare": "pharmacy", "name": "Boots", "opening_hours": "Mo-Fr 09:00-19:00; Sa 09:00-18:30; Su 11:00-18:00", "operator": "Boots UK Limited", "ref": "1428", "source:addr": "FHRS Open Data"}}, {"type": "Feature", "geometry": {"type": "Point", "coordinates": [-0.1219873, 51.5199062]}, "properties": {"amenity": "pharmacy", "check_date": "2025-06-16", "healthcare": "pharmacy", "name": "Holborn Pharmacy"}}, {"type": "Feature", "geometry": {"type": "Point", "coordinates": [-0.141429, 51.4876539]}, "properties": {"addr:city": "London", "addr:housenumber": "105", "addr:postcode": "SW1V 3EN", "addr:street": "Lupus Street", "amenity": "pharmacy", "check_date": "2024-04-04", "fhrs:id": "413414", "healthcare": "pharmacy", "name": "Simmonds Pharmacy", "opening_hours": "Mo-Fr 09:00-18:00; Sa 09:00-17:00"}}, {"type": "Feature", "geometry": {"type": "Point", "coordinates": [-0.0936964, 51.4853896]}, "properties": {"addr:city": "London", "addr:housenumber": "371", "addr:postcode": "SE17 2AL", "addr:street": "Walworth Road", "amenity": "pharmacy", "brand": "Superdrug", "brand:wikidata": "Q7643261", "brand:wikipedia": "en:Superdrug", "check_date": "2025-07-23", "contact:website": "https://www.superdrug.com/store/walworth-road", "fhrs:id": "362803", "healthcare": "pharmacy", "name": "Superdrug", "source:addr": "FHRS Open Data"}}, {"type": "Feature", "geometry": {"type": "Point", "coordinates": [-0.1080197, 51.5936265]}, "properties": {"addr:city": "London", "addr:housenumber": "137-139", "addr:postcode": "N22 6BA", "addr:street": "High Road", "addr:suburb": "Wood Green", "amenity": "pharmacy", "branch": "London Wood Green High Road", "brand": "Boots", "brand:wikidata": "Q6123139", "brand:wikipedia": "en:Boots UK", "contact:website": "http://www.boots.com/stores/785-london-wood-green-high-road-n22-6ba", "dispensing": "yes", "fhrs:authority": "Haringey", "fhrs:id": "422801", "fhrs:local_authority_id": "PI/000128570", "healthcare": "pharmacy", "level": "0", "name": "Boots", "operator": "Boots UK Limited", "ref": "785", "source:addr": "FHRS Open Data", "toilets:wheelchair": "no", "wheelchair": "yes"}}, {"type": "Feature", "geometry": {"type": "Point", "coordinates": [-0.1027719, 51.5401675]}, "properties": {"addr:city": "London", "addr:housenumber": "150", "addr:postcode": "N1 1RA", "addr:street": "Upper Street", "addr:suburb": "Islington", "amenity": "pharmacy", "fhrs:id": "417128", "healthcare": "pharmacy", "name": "Clan Pharmacy", "source:addr": "FHRS Open Data", "wheelchair": "no"}}, {"type": "Feature", "geometry": {"type": "Point", "coordinates": [-0.1430477, 51.5169739]}, "properties": {"amenity": "pharmacy", "fixme": "resurvey", "healthcare": "pharmacy", "name": "Shiv"}}, {"type": "Feature", "geometry": {"type": "Point", "coordinates": [-0.1110296, 51.5560697]}, "properties": {"addr:city": "London", "addr:housenumber": "84", "addr:postcode": "N7 7NN", "addr:street": "Hornsey Road", "amenity": "pharmacy", "dispensing": "yes", "healthcare": "pharmacy", "name": "Hornsey Road Pharmacy", "opening_hours": "Mo-We 09:00-13:30,14:30-19:00; Th 09:00-13:00; Fr 09:00-13:30,14:30-19:00", "phone": "+44 20 7609 0439"}}, {"type": "Feature", "geometry": {"type": "Point", "coordinates": [-0.0920732, 51.5859818]}, "properties": {"addr:city": "London", "addr:housenumber": "331", "addr:postcode": "N15 3PB", "addr:street": "West Green Road", "amenity": "pharmacy", "dispensing": "yes", "drive_through": "no", "healthcare": "pharmacy", "name": "All Cures Pharmacy", "opening_hours": "Mo-Fr 09:00-19:00", "phone": "+44 20 8888 3040", "website": "https://allcures.com/"}}, {"type": "Feature", "geometry": {"type": "Point", "coordinates": [-0.1063756, 51.5330239]}, "properties": {"addr:city": "London", "addr:housenumber": "35-37", "addr:postcode": "N1 9LH", "addr:street": "Islington High Street", "addr:suburb": "Islington", "amenity": "pharmacy", "branch": "London Islington High Street", "brand": "Boots", "brand:wikidata": "Q6123139", "brand:wikipedia": "en:Boots UK", "check_date": "2025-10-15", "contact:phone": "+44 20 7837 3430", "contact:website": "https://www.boots.com/stores/779-london-islington-high-street-n1-9lh", "dispensing": "yes", "drive_through": "no", "fhrs:id": "1087051", "healthcare": "pharmacy", "level": "0", "name": "Boots", "opening_hours": "Mo-Fr 08:00-20:00; Sa 09:00-19:00; Su 11:00-17:00", "operator": "Boots UK Limited", "payment:credit_cards": "yes", "payment:debit_cards": "yes", "payment:mastercard": "yes", "payment:visa": "yes", "ref": "779", "source": "survey", "source:addr": "FHRS Open Data", "wheelchair": "limited"}}, {"type": "Feature", "geometry": {"type": "Point", "coordinates": [-0.0034098, 51.5872798]}, "properties": {"addr:city": "London", "addr:country": "GB", "addr:housenumber": "147-151", "addr:postcode": "E17 3LX", "addr:street": "Wood Street", "addr:suburb": "Walthamstow", "amenity": "pharmacy", "brand": "Well Pharmacy", "brand:wikidata": "Q7726524", "brand:wikipedia": "en:Well Pharmacy", "fhrs:id": "926882", "healthcare": "pharmacy", "name": "Well Pharmacy", "shop": "chemist", "source": "survey", "source:addr": "FHRS Open Data", "website": "https://finder.well.co.uk/store/walthamstow-wood-street"}}, {"type": "Feature", "geometry": {"type": "Point", "coordinates": [-0.1082823, 51.5493186]}, "properties": {"amenity": "pharmacy", "name": "Egerton Pharmacy", "payment:american_express": "yes", "wheelchair": "yes"}}, {"type": "Feature", "geometry": {"type": "Point", "coordinates": [0.0286565, 51.5253626]}, "properties": {"addr:city": "London", "addr:housenumber": "524-526", "addr:postcode": "E13 8QE", "addr:street": "Barking Road", "addr:suburb": "Plaistow", "amenity": "pharmacy", "dispensing": "yes", "fhrs:id": "1076888", "fhrs:local_authority_id": "18/00350/FOOD", "healthcare": "pharmacy", "level": "0", "name": "Newmans Pharmacy"}}, {"type": "Feature", "geometry": {"type": "Point", "coordinates": [-0.1349913, 51.4896823]}, "properties": {"addr:city": "London", "addr:housenumber": "95", "addr:street": "Tachbrook Street", "amenity": "pharmacy", "dispensing": "no", "healthcare": "pharmacy", "name": "Portman Pharmacy", "payment:american_express": "yes", "wheelchair": "limited"}}, {"type": "Feature", "geometry": {"type": "Point", "coordinates": [-0.1666594, 51.5146201]}, "properties": {"addr:city": "London", "addr:housenumber": "25", "addr:postcode": "W2 2AW", "addr:street": "Kendal Street", "amenity": "pharmacy", "drive_through": "no", "healthcare": "pharmacy", "name": "Hogg & Son Pharmacy", "source": "survey", "website": "https://hoggandsonpharmacy.business.site/"}}, {"type": "Feature", "geometry": {"type": "Point", "coordinates": [-0.1925994, 51.4966466]}, "properties": {"addr:city": "London", "addr:housenumber": "4", "addr:street": "Stratford Road", "amenity": "pharmacy", "check_date": "2025-01-17", "healthcare": "pharmacy", "name": "Kensington Pharmacy", "opening_hours": "Mo-Fr 09:00-19:00; Sa 10:00-19:00; Su 12:00-19:00", "phone": "+44 20 7937 6178"}}, {"type": "Feature", "geometry": {"type": "Point", "coordinates": [-0.1321907, 51.4748591]}, "properties": {"addr:city": "London", "addr:housenumber": "240", "addr:postcode": "SW8 2JS", "addr:street": "Wandsworth Road", "amenity": "pharmacy", "fhrs:id": "981641", "healthcare": "pharmacy", "name": "Halls Pharmacy"}}, {"type": "Feature", "geometry": {"type": "Point", "coordinates": [-0.0253265, 51.4085035]}, "properties": {"addr:city": "Beckenham", "addr:housenumber": "70", "addr:postcode": "BR3 1ED", "addr:street": "High Street", "amenity": "pharmacy", "dispensing": "yes", "fhrs:authority": "Bromley", "fhrs:id": "987347", "healthcare": "pharmacy", "name": "Beckenham Pharmacy", "phone": "+44 20 8650 6076", "source": "survey;https://ratings.food.gov.uk/OpenDataFiles/FHRS505en-GB.xml"}}, {"type": "Feature", "geometry": {"type": "Point", "coordinates": [-0.166194, 51.4454858]}, "properties": {"addr:city": "London", "addr:housenumber": "13", "addr:postcode": "SW17 7EG", "addr:street": "Bellevue Road", "amenity": "pharmacy", "fhrs:id": "1571933", "healthcare": "pharmacy", "name": "Bellevue Pharmacy", "source:addr": "FHRS Open Data"}}, {"type": "Feature", "geometry": {"type": "Point", "coordinates": [-0.0281123, 51.4069507]}, "properties": {"addr:city": "Beckenham", "addr:housenumber": "190 - 192", "addr:postcode": "BR3 1EN", "addr:street": "High Street", "amenity": "pharmacy", "brand": "Superdrug", "brand:wikidata": "Q7643261", "brand:wikipedia": "en:Superdrug", "check_date": "2026-03-05", "dispensing": "yes", "fhrs:id": "357236", "healthcare": "pharmacy", "name": "Superdrug", "operator": "Superdrug", "phone": "+44 208 658 8169", "source:addr": "FHRS Open Data", "website": "https://www.superdrug.com/store/beckenham"}}, {"type": "Feature", "geometry": {"type": "Point", "coordinates": [-0.0984536, 51.5347163]}, "properties": {"amenity": "pharmacy", "healthcare": "pharmacy", "name": "St Peter's Pharmacy"}}, {"type": "Feature", "geometry": {"type": "Point", "coordinates": [-0.1419012, 51.5377008]}, "properties": {"addr:city": "London", "addr:housenumber": "139", "addr:street": "Camden High Street", "amenity": "pharmacy", "healthcare": "pharmacy", "name": "JP Pharmacy", "wheelchair": "yes"}}, {"type": "Feature", "geometry": {"type": "Point", "coordinates": [-0.3545383, 51.5722081]}, "properties": {"addr:city": "Harrow", "addr:country": "GB", "addr:housenumber": "5", "addr:postcode": "HA2 0AJ", "addr:street": "Shaftesbury Circle", "amenity": "pharmacy", "dispensing": "yes", "name": "Shaftesbury Pharmacy"}}, {"type": "Feature", "geometry": {"type": "Point", "coordinates": [-0.2161762, 51.5077276]}, "properties": {"addr:housenumber": "16", "addr:street": "Swanscombe Road", "amenity": "pharmacy", "healthcare": "pharmacy", "name": "Faro Pharmacy", "phone": "+44 20 7603 9226"}}, {"type": "Feature", "geometry": {"type": "Point", "coordinates": [0.1942105, 51.2878898]}, "properties": {"amenity": "pharmacy", "healthcare": "pharmacy", "name": "Bat & Ball Pharmacy", "phone": "+44 1732 453094"}}, {"type": "Feature", "geometry": {"type": "Point", "coordinates": [-0.2156068, 51.556758]}, "properties": {"amenity": "pharmacy", "healthcare": "pharmacy"}}, {"type": "Feature", "geometry": {"type": "Point", "coordinates": [-0.2139059, 51.5557675]}, "properties": {"amenity": "pharmacy", "dispensing": "yes", "healthcare": "pharmacy", "name": "Akhtar Pharmacy"}}, {"type": "Feature", "geometry": {"type": "Point", "coordinates": [-0.2138765, 51.5557312]}, "properties": {"amenity": "pharmacy", "healthcare": "pharmacy", "name": "Akhtar Health Store"}}, {"type": "Feature", "geometry": {"type": "Point", "coordinates": [-0.2117196, 51.5537903]}, "properties": {"addr:city": "London", "addr:street": "Cricklewood Broadway", "amenity": "pharmacy", "healthcare": "pharmacy", "name": "Lever Medical Centre"}}, {"type": "Feature", "geometry": {"type": "Point", "coordinates": [-0.2102876, 51.5526155]}, "properties": {"addr:city": "London", "addr:street": "Cricklewood Broadway", "amenity": "pharmacy", "healthcare": "pharmacy", "name": "Green Light Pharmacy"}}, {"type": "Feature", "geometry": {"type": "Point", "coordinates": [-0.2929249, 51.62151]}, "properties": {"amenity": "pharmacy", "name": "Andrews Pharmacy"}}, {"type": "Feature", "geometry": {"type": "Point", "coordinates": [-0.4707954, 51.639033]}, "properties": {"amenity": "pharmacy", "healthcare": "pharmacy", "name": "Riverside Pharmacy"}}, {"type": "Feature", "geometry": {"type": "Point", "coordinates": [0.016494, 51.4059218]}, "properties": {"amenity": "pharmacy", "brand": "Boots", "brand:wikidata": "Q6123139", "brand:wikipedia": "en:Boots UK", "healthcare": "pharmacy", "name": "Boots", "website": "https://www.boots.com/stores/836-bromley-the-glades-br1-1hd"}}, {"type": "Feature", "geometry": {"type": "Point", "coordinates": [0.0172019, 51.4005316]}, "properties": {"addr:city": "Bromley", "addr:housenumber": "7", "addr:postcode": "BR1 1LF", "addr:street": "High Street", "amenity": "pharmacy", "check_date": "2025-09-24", "check_date:opening_hours": "2025-09-24", "contact:website": "https://www.paydens.com", "dispensing": "yes", "drive_through": "no", "fhrs:id": "987367", "healthcare": "pharmacy", "level": "0", "name": "Scotts Pharmacy", "opening_hours": "Mo-Fr 09:00-18:00; Sa 09:00-17:30", "payment:mastercard": "yes", "payment:visa": "yes", "source:addr": "FHRS Open Data", "wheelchair": "yes"}}, {"type": "Feature", "geometry": {"type": "Point", "coordinates": [-0.0528176, 51.499497]}, "properties": {"amenity": "pharmacy", "healthcare": "pharmacy", "name": "Albion Chemist", "opening_hours": "Mo-Fr 09:00-19:00", "payment:cash": "yes", "wheelchair": "yes"}}, {"type": "Feature", "geometry": {"type": "Point", "coordinates": [0.0114466, 51.5197007]}, "properties": {"addr:city": "London", "addr:housename": "The Hub", "addr:housenumber": "123", "addr:postcode": "E16 4PZ", "addr:street": "Star Lane", "amenity": "pharmacy", "healthcare": "pharmacy", "name": "Jetsol Pharmacy"}}, {"type": "Feature", "geometry": {"type": "Point", "coordinates": [-0.138538, 51.5413401]}, "properties": {"addr:city": "London", "addr:housenumber": "96", "addr:postcode": "NW1 9EA", "addr:street": "Camden Road", "amenity": "pharmacy", "dispensing": "yes", "fhrs:id": "424100", "fhrs:local_authority_id": "20365", "healthcare": "pharmacy", "level": "0", "name": "Biotech Pharmacy", "opening_hours": "Mo-Fr 09:00-18:00, Sa 09:00-13:00, Su closed", "phone": "+44 20 7485 1714", "shop": "chemist", "source:addr:postcode": "FHRS Open Data"}}, {"type": "Feature", "geometry": {"type": "Point", "coordinates": [0.2603112, 51.4454785]}, "properties": {"addr:city": "Dartford", "addr:housenumber": "229", "addr:postcode": "DA9 9DF", "addr:street": "London Road", "alt_name": "Nisa Local", "amenity": "pharmacy", "check_date": "2025-07-19", "contact:website": "https://www.stonepharmacy.co.uk/", "fhrs:id": "932202", "healthcare": "pharmacy", "name": "Stone Pharmacy", "source:addr": "FHRS Open Data"}}, {"type": "Feature", "geometry": {"type": "Point", "coordinates": [0.277837, 51.4520601]}, "properties": {"amenity": "pharmacy", "brand": "Asda", "brand:wikidata": "Q297410", "brand:wikipedia": "en:Asda", "check_date": "2024-08-18", "check_date:opening_hours": "2024-08-18", "contact:phone": "+44 1322 374110", "contact:website": "https://storelocator.asda.com/south-east/greenhithe/crossways-boulevard/pharmacy", "healthcare": "pharmacy", "name": "Asda", "opening_hours": "Mo-Sa 09:00-20:00; Su 11:00-17:00", "operator": "Asda Stores Ltd"}}, {"type": "Feature", "geometry": {"type": "Point", "coordinates": [0.2190203, 51.4442922]}, "properties": {"addr:city": "Dartford", "addr:housenumber": "46-52", "addr:postcode": "DA1 1DE", "addr:street": "High Street", "amenity": "pharmacy", "brand": "Boots", "brand:wikidata": "Q6123139", "brand:wikipedia": "en:Boots (company)", "check_date": "2023-02-04", "dispensing": "yes", "fhrs:id": "4419", "healthcare": "pharmacy", "name": "Boots", "source:addr": "FHRS Open Data", "website": "https://www.boots.com/stores/945-dartford-high-street-da1-1de"}}, {"type": "Feature", "geometry": {"type": "Point", "coordinates": [0.2170246, 51.5627955]}, "properties": {"addr:city": "Hornchurch", "addr:housenumber": "70-74", "addr:postcode": "RM12 4UW", "addr:street": "High Street", "amenity": "pharmacy", "brand": "Superdrug", "brand:wikidata": "Q7643261", "contact:website": "https://www.superdrug.com/store/hornchurch", "fhrs:id": "374064", "fhrs:local_authority_id": "9872", "name": "Superdrug", "source:addr": "FHRS Open Data"}}, {"type": "Feature", "geometry": {"type": "Point", "coordinates": [0.2192053, 51.5624545]}, "properties": {"addr:city": "Hornchurch", "addr:housenumber": "126", "addr:postcode": "RM12 4UH", "addr:street": "High Street", "amenity": "pharmacy", "branch": "Hornchurch 126 High Street", "brand:wikidata": "Q6123139", "contact:phone": "+44 1708 442089", "dispensing": "yes", "fhrs:id": "374023", "fhrs:local_authority_id": "9637", "level": "0", "name": "Boots", "operator": "Boots UK Limited", "ref": "1498", "shop": "chemist", "source:addr": "FHRS Open Data", "website": "https://www.boots.com/stores/1498-hornchurch-high-street-rm12-4uh", "wheelchair": "yes"}}, {"type": "Feature", "geometry": {"type": "Point", "coordinates": [-0.0279826, 51.4072131]}, "properties": {"addr:city": "Beckenham", "addr:housenumber": "182", "addr:postcode": "BR3 1EW", "addr:street": "High Street", "amenity": "pharmacy", "brand": "Boots", "brand:wikidata": "Q6123139", "dispensing": "yes", "fhrs:id": "987349", "healthcare": "pharmacy", "name": "Boots", "opening_hours": "Mo-Sa 09:00-17:30", "operator": "Boots", "source:addr": "FHRS Open Data", "website": "https://www.boots.com/stores/822-beckenham-high-street-br3-1ew"}}, {"type": "Feature", "geometry": {"type": "Point", "coordinates": [-0.059493, 51.563988]}, "properties": {"amenity": "pharmacy", "healthcare": "pharmacy"}}, {"type": "Feature", "geometry": {"type": "Point", "coordinates": [-0.1107082, 51.5987564]}, "properties": {"amenity": "pharmacy", "check_date": "2009-08-09", "healthcare": "pharmacy", "name": "Crescent Pharmacy Express", "old_name": "Lloyds Pharmacy"}}, {"type": "Feature", "geometry": {"type": "Point", "coordinates": [-0.1103381, 51.5980425]}, "properties": {"amenity": "pharmacy", "brand": "Numark", "brand:wikidata": "Q7069061", "healthcare": "pharmacy", "name": "Numark Pharmacy Express"}}, {"type": "Feature", "geometry": {"type": "Point", "coordinates": [-0.0672535, 51.3931794]}, "properties": {"alt_name": "Fishers Chemist", "amenity": "pharmacy", "check_date": "2025-09-02", "dispensing": "yes", "healthcare": "pharmacy", "name": "Fishers Pharmacy", "toilets:wheelchair": "yes", "wheelchair": "yes"}}, {"type": "Feature", "geometry": {"type": "Point", "coordinates": [-0.2654659, 51.3684542]}, "properties": {"addr:housenumber": "2", "addr:postcode": "KT19 0JA", "addr:street": "Ruxley Lane", "amenity": "pharmacy", "fhrs:id": "1015378", "healthcare": "pharmacy", "name": "Ruxley Pharmacy", "source:addr": "FHRS Open Data", "wheelchair": "yes"}}, {"type": "Feature", "geometry": {"type": "Point", "coordinates": [-0.2685995, 51.3329235]}, "properties": {"addr:postcode": "KT18 5DA", "addr:street": "High Street", "amenity": "pharmacy", "brand": "Boots", "brand:wikidata": "Q6123139", "brand:wikipedia": "en:Boots (company)", "check_date": "2025-06-01", "fhrs:id": "21490", "healthcare": "pharmacy", "name": "Boots", "opening_hours": "Mo-Sa 08:30-18:30; Su 10:30-16:30", "source:addr": "FHRS Open Data", "website": "https://www.boots.com/stores/809-epsom-ashley-centre-kt18-5db", "wheelchair": "yes"}}, {"type": "Feature", "geometry": {"type": "Point", "coordinates": [-0.2687396, 51.3329038]}, "properties": {"amenity": "pharmacy", "check_date": "2025-06-01", "old_name": "Lloyds Pharmacy", "wheelchair": "no"}}, {"type": "Feature", "geometry": {"type": "Point", "coordinates": [-0.0965796, 51.4893079]}, "properties": {"addr:city": "London", "addr:housenumber": "192", "addr:postcode": "SE17 1JJ", "addr:street": "Walworth Road", "amenity": "pharmacy", "dispensing": "yes", "fhrs:id": "362817", "healthcare": "pharmacy", "name": "Walworth Pharmacy", "phone": "+44 20 7703 5103", "source:addr": "FHRS Open Data"}}, {"type": "Feature", "geometry": {"type": "Point", "coordinates": [-0.095623, 51.4883364]}, "properties": {"amenity": "pharmacy", "check_date": "2023-09-12", "dispensing": "no", "healthcare": "pharmacy", "name": "Ridgway Pharmacy", "wheelchair": "yes"}}, {"type": "Feature", "geometry": {"type": "Point", "coordinates": [-0.2564398, 51.4927962]}, "properties": {"addr:floor": "G", "addr:housenumber": "202", "addr:street": "Chiswick High Road", "amenity": "pharmacy", "check_date": "2025-07-06", "dispensing": "yes", "healthcare": "pharmacy", "level": "0", "name": "Churchill's Pharmacy", "opening_hours": "Mo-Fr 09:00-18:30; Sa 09:00-18:00; Su off", "phone": "+44 20 8994 0229", "website": "https://churchillspharmacy.business.site/"}}, {"type": "Feature", "geometry": {"type": "Point", "coordinates": [-0.1721303, 51.4860991]}, "properties": {"addr:housenumber": "255", "addr:street": "King's Road", "amenity": "pharmacy", "dispensing": "yes", "healthcare": "pharmacy", "name": "I.T. Lloyds Chemist", "phone": "+44 20 7352 5128"}}, {"type": "Feature", "geometry": {"type": "Point", "coordinates": [-0.1321017, 51.5146648]}, "properties": {"amenity": "pharmacy", "brand": "Watsons", "brand:wikidata": "Q7974785", "brand:wikipedia": "en:Watsons", "check_date": "2025-06-17", "dispensing": "yes", "healthcare": "pharmacy", "name": "Watsons", "shop": "chemist"}}, {"type": "Feature", "geometry": {"type": "Point", "coordinates": [-0.4238361, 51.5009595]}, "properties": {"amenity": "pharmacy", "check_date": "2024-02-29", "healthcare": "pharmacy"}}, {"type": "Feature", "geometry": {"type": "Point", "coordinates": [-0.4361629, 51.4876486]}, "properties": {"amenity": "pharmacy", "name": "The Village Pharmacy"}}, {"type": "Feature", "geometry": {"type": "Point", "coordinates": [-0.1658093, 51.5172034]}, "properties": {"addr:city": "London", "addr:housenumber": "160-162", "addr:street": "Edgware Road", "amenity": "pharmacy", "check_date": "2023-04-11", "healthcare": "pharmacy", "name": "Prince Pharmacy", "website": "https://princepharmacy.com/", "wheelchair": "limited"}}, {"type": "Feature", "geometry": {"type": "Point", "coordinates": [-0.1040809, 51.4358215]}, "properties": {"addr:city": "London", "addr:housenumber": "485-487", "addr:postcode": "SE27 9AJ", "addr:street": "Norwood Road", "amenity": "pharmacy", "healthcare": "pharmacy", "name": "Adarshi Pharmacy"}}, {"type": "Feature", "geometry": {"type": "Point", "coordinates": [-0.1065133, 51.440867]}, "properties": {"addr:city": "London", "addr:housenumber": "156", "addr:postcode": "SE27 9AZ", "addr:street": "Norwood Road", "amenity": "pharmacy", "fhrs:id": "981602", "healthcare": "pharmacy", "name": "Deejay Chemist", "note": "FHRS has 154, but that clearly belongs to hair extensions shop next door", "source": "survey", "source:postcode": "FHRS Open Data"}}, {"type": "Feature", "geometry": {"type": "Point", "coordinates": [-0.0688347, 51.5960375]}, "properties": {"addr:city": "London", "addr:housenumber": "573", "addr:postcode": "N17 6SB", "addr:street": "High Road", "addr:suburb": "Tottenham", "amenity": "pharmacy", "check_date": "2022-12-13", "contact:phone": "+44 20 8808 3291", "contact:website": "https://www.pharmocare.com/", "healthcare": "pharmacy", "name": "Pharmocare", "opening_hours": "Mo-Fr 09:00-19:00; Sa 09:00-17:30; Su off"}}, {"type": "Feature", "geometry": {"type": "Point", "coordinates": [-0.070065, 51.5921911]}, "properties": {"addr:city": "London", "addr:housenumber": "465", "addr:postcode": "N17 6QB", "addr:street": "High Road", "addr:suburb": "Tottenham", "amenity": "pharmacy", "check_date": "2022-12-13", "contact:website": "https://www.pharmocare.com/", "healthcare": "pharmacy", "name": "Pharmocare", "opening_hours": "Mo-Fr 09:00-19:00; Sa 09:00-17:30; Su off", "phone": "+44 20 8808 9092", "shop": "chemist"}}, {"type": "Feature", "geometry": {"type": "Point", "coordinates": [0.2977428, 51.6676393]}, "properties": {"amenity": "pharmacy"}}, {"type": "Feature", "geometry": {"type": "Point", "coordinates": [-0.1877341, 51.5144072]}, "properties": {"addr:city": "London", "addr:housenumber": "128-130", "addr:postcode": "W2 6LS", "addr:street": "Queensway", "amenity": "pharmacy", "brand": "Superdrug", "brand:wikidata": "Q7643261", "brand:wikipedia": "en:Superdrug", "contact:website": "https://www.superdrug.com/store/queensway", "fhrs:confidence_management": "5", "fhrs:hygiene": "0", "fhrs:id": "414705", "fhrs:local_authority_id": "09/00113/COMM", "fhrs:rating": "5", "fhrs:structural": "5", "healthcare": "pharmacy", "name": "Superdrug", "operator": "Superdrug", "source:addr": "FSA Food Hygiene Ratings Database", "source:postcode": "FSA Food Hygiene Ratings Database", "wheelchair": "yes"}}, {"type": "Feature", "geometry": {"type": "Point", "coordinates": [-0.1742552, 51.650166]}, "properties": {"amenity": "pharmacy"}}, {"type": "Feature", "geometry": {"type": "Point", "coordinates": [-0.4739992, 51.5332346]}, "properties": {"amenity": "pharmacy", "healthcare": "pharmacy", "name": "Brunel Pharmacy"}}, {"type": "Feature", "geometry": {"type": "Point", "coordinates": [-0.1205142, 51.5172243]}, "properties": {"addr:city": "London", "addr:housenumber": "129\u2013133", "addr:postcode": "WC2B 6NH", "addr:street": "Kingsway", "amenity": "pharmacy", "branch": "London Kingsway", "brand": "Boots", "brand:wikidata": "Q6123139", "brand:wikipedia": "en:Boots (company)", "contact:phone": "+44 20 7242 8897", "contact:website": "http://www.boots.com/stores/1521-london-kingsway-wc2b-6pp", "dispensing": "yes", "fhrs:id": "425026", "fhrs:local_authority_id": "45223", "healthcare": "pharmacy", "name": "Boots", "opening_hours": "Mo-Fr 07:30-21:00; Sa 10:00-19:00; Su 12:00-18:00", "operator": "Boots UK Limited", "payment:american_express": "yes", "payment:cash": "yes", "ref": "1521", "wheelchair": "yes"}}, {"type": "Feature", "geometry": {"type": "Point", "coordinates": [-0.2989325, 51.5867181]}, "properties": {"amenity": "pharmacy", "name": "Tyerest Limited"}}, {"type": "Feature", "geometry": {"type": "Point", "coordinates": [-0.2946133, 51.5709459]}, "properties": {"addr:city": "Wembley", "addr:country": "GB", "addr:housenumber": "212", "addr:postcode": "HA9 8PB", "addr:street": "Preston Road", "amenity": "pharmacy", "dispensing": "yes", "fhrs:id": "532463", "healthcare": "pharmacy", "name": "Paster Pharmacy", "nhs": "yes", "source": "survey;Bing 2012", "source:addr": "FHRS Open Data", "survey:date": "2013-08-17", "toilets:wheelchair": "no", "wheelchair": "yes"}}, {"type": "Feature", "geometry": {"type": "Point", "coordinates": [-0.313744, 51.4984358]}, "properties": {"addr:city": "London", "addr:floor": "G", "addr:housenumber": "261", "addr:postcode": "W5 4UA", "addr:street": "Northfield Avenue", "amenity": "pharmacy", "check_date": "2025-02-02", "level": "0", "name": "Bramley Pharmacy", "wheelchair": "no"}}, {"type": "Feature", "geometry": {"type": "Point", "coordinates": [-0.2265854, 51.5004981]}, "properties": {"amenity": "pharmacy", "healthcare": "pharmacy", "name": "Gate Pharmacy"}}, {"type": "Feature", "geometry": {"type": "Point", "coordinates": [-0.1349239, 51.646769]}, "properties": {"addr:housenumber": "73", "addr:street": "Bramley Road", "amenity": "pharmacy", "dispensing": "yes", "name": "C&M Whitman Vantage Dispensing Chemist", "opening_hours": "Mo-Fr 09:00-19:00; Sa 08:30-12:30"}}, {"type": "Feature", "geometry": {"type": "Point", "coordinates": [0.1718508, 51.4235194]}, "properties": {"addr:city": "Dartford", "addr:postcode": "DA2 7NJ", "addr:street": "Woodside Drive", "addr:substreet": "Birchwood Parade", "addr:unit": "2", "amenity": "pharmacy", "fhrs:id": "449901", "name": "Joydens Wood Pharmacy", "opening_hours": "Mo,Tu,Fr 09:00-13:00,14:00-19:00; We,Th 09:00-13:00,14:00-18:30; Sa 09:00-13:00,14:00-17:30", "source:addr": "FHRS Open Data", "survey:date": "2021-11-01"}}, {"type": "Feature", "geometry": {"type": "Point", "coordinates": [0.0157475, 51.4060916]}, "properties": {"addr:city": "Bromley", "addr:housenumber": "3", "addr:postcode": "BR1 1RL", "addr:street": "Widmore Road", "amenity": "pharmacy", "check_date": "2023-09-17", "dispensing": "yes", "drive_through": "no", "fhrs:id": "987371", "healthcare": "pharmacy", "level": "0", "name": "Caxton Pharmacy", "opening_hours": "Mo-Fr 09:00-18:00; Sa 09:00-17:00; Su off", "payment:mastercard": "yes", "payment:visa": "yes", "source": "survey", "source:addr": "FHRS Open Data", "wheelchair": "no"}}, {"type": "Feature", "geometry": {"type": "Point", "coordinates": [0.0169559, 51.4147288]}, "properties": {"addr:city": "Bromley", "addr:country": "GB", "addr:housenumber": "84a", "addr:postcode": "BR1 4HE", "addr:street": "London Lane", "amenity": "pharmacy", "dispensing": "yes", "healthcare": "pharmacy", "lit": "yes", "name": "Touchwood Pharmacy"}}, {"type": "Feature", "geometry": {"type": "Point", "coordinates": [0.1739417, 51.3967278]}, "properties": {"addr:city": "Swanley", "addr:county": "Kent", "addr:housename": "Swanley Centre", "addr:housenumber": "47", "addr:postcode": "BR8 7TQ", "addr:street": "London Road", "addr:unit": "47", "amenity": "pharmacy", "check_date": "2024-05-31", "dispensing": "yes", "fhrs:id": "1835634", "healthcare": "pharmacy", "name": "Swanley Pharmacy", "opening_hours": "Mo-We 09:00-18:00; Th,Fr 09:00-19:00; Sa 09:00-17:00", "phone": "+44 1322 662 259", "shop": "chemist", "source:addr": "FHRS Open Data", "source:postcode": "codepoint_overlay", "wheelchair": "yes"}}, {"type": "Feature", "geometry": {"type": "Point", "coordinates": [-0.1247134, 51.5083417]}, "properties": {"addr:city": "London", "addr:housename": "Charing Cross Station", "addr:postcode": "WC2N 5HS", "addr:street": "Strand", "addr:unit": "Unit 5", "amenity": "pharmacy", "branch": "London Charing Cross Station", "brand": "Boots", "brand:wikidata": "Q6123139", "brand:wikipedia": "en:Boots (company)", "check_date": "2025-08-20", "contact:phone": "+44 20 7839 5510", "contact:website": "http://www.boots.com/stores/797-london-charing-cross-station-wc2n-5hs", "dispensing": "yes", "drive_through": "no", "fhrs:id": "414222", "fhrs:local_authority_id": "01576/2004/4/005", "healthcare": "pharmacy", "level": "0", "name": "Boots", "opening_hours": "Mo-Fr 07:00-22:00; Sa 08:00-20:00; Su 09:00-19:00", "operator": "Boots UK Limited", "payment:american_express": "yes", "ref": "797", "source": "survey", "source:addr": "FHRS Open Data", "wheelchair": "yes", "wheelchair:description": "Step-free from main line booking hall."}}, {"type": "Feature", "geometry": {"type": "Point", "coordinates": [-0.1084165, 51.5179712]}, "properties": {"addr:city": "London", "addr:housenumber": "122", "addr:postcode": "EC1N 2TD", "addr:street": "Holborn", "amenity": "pharmacy", "branch": "London Holborn", "brand": "Boots", "brand:wikidata": "Q6123139", "brand:wikipedia": "en:Boots (company)", "check_date": "2025-08-06", "contact:phone": "+44 20 7404 4519", "contact:website": "http://www.boots.com/stores/723-london-holborn-ec1n-2td", "dispensing": "yes", "fhrs:id": "423966", "fhrs:local_authority_id": "1651", "healthcare": "pharmacy", "name": "Boots", "opening_hours": "Mo-Fr 08:30-18:30", "operator": "Boots UK Limited", "ref": "723", "source:addr": "FHRS Open Data"}}, {"type": "Feature", "geometry": {"type": "Point", "coordinates": [-0.1119005, 51.5013249]}, "properties": {"addr:city": "London", "addr:housenumber": "98-99", "addr:postcode": "SE1 7AB", "addr:street": "Lower Marsh", "amenity": "pharmacy", "brand": "Boots", "brand:wikidata": "Q6123139", "brand:wikipedia": "en:Boots (company)", "check_date": "2025-09-04", "dispensing": "yes", "drive_through": "no", "fhrs:id": "981596", "healthcare": "pharmacy", "name": "Boots", "opening_hours": "Mo-Fr 08:30-18:30; Sa 09:30-16:00", "payment:american_express": "yes", "source:addr": "FHRS Open Data", "website": "https://www.boots.com/stores/832-london-lambeth-se1-7ab", "wheelchair": "yes"}}, {"type": "Feature", "geometry": {"type": "Point", "coordinates": [-0.1120584, 51.4971959]}, "properties": {"addr:housenumber": "42", "addr:street": "Kennington Road", "amenity": "pharmacy", "check_date": "2026-02-06", "healthcare": "pharmacy", "name": "Cam Pharmacy"}}, {"type": "Feature", "geometry": {"type": "Point", "coordinates": [-0.1119058, 51.4960122]}, "properties": {"addr:city": "London", "addr:housenumber": "76", "addr:postcode": "SE11 6NL", "addr:street": "Kennington Road", "amenity": "pharmacy", "check_date": "2025-09-18", "email": "pharmacy.lambeth@gmail.com", "healthcare": "pharmacy", "name": "Lambeth Pharmacy", "opening_hours": "Mo-Fr 09:00-18:30; Sa 09:00-13:00; Su off", "operator": "Chana Chemist", "phone": "+44 207 735 9883", "website": "https://chanachemist.co.uk/pharmacy/lambeth-pharmacy"}}, {"type": "Feature", "geometry": {"type": "Point", "coordinates": [-0.1578301, 51.4987028]}, "properties": {"addr:city": "London", "addr:housenumber": "25E", "addr:postcode": "SW1X 9JF", "addr:street": "Lowndes Street", "amenity": "pharmacy", "fax": "+44 20 7235 5887", "healthcare": "pharmacy", "name": "A. Moore & Co.", "phone": "+44 20 7235 5887", "website": "https://a-moore-co-dispensing-chemist.business.site"}}, {"type": "Feature", "geometry": {"type": "Point", "coordinates": [-0.1203585, 51.5107361]}, "properties": {"addr:city": "London", "addr:housenumber": "105-108", "addr:postcode": "WC2R 0AA", "addr:street": "Strand", "amenity": "pharmacy", "branch": "London 105 The Strand", "brand": "Boots", "brand:wikidata": "Q6123139", "brand:wikipedia": "en:Boots (company)", "check_date": "2023-09-23", "contact:phone": "+44 20 7240 5963", "dispensing": "yes", "fhrs:id": "1392218", "fixme": "Is this Boots store still here? (Website broken)", "healthcare": "pharmacy", "level": "0", "name": "Boots", "name:ja": "\u30d6\u30fc\u30c4", "operator": "Boots UK Limited", "payment:american_express": "yes", "ref": "1630", "website": "https://www.boots.com/stores/1630-london-the-strand-wc2r-0aa", "wheelchair": "yes"}}, {"type": "Feature", "geometry": {"type": "Point", "coordinates": [-0.2185442, 51.5036303]}, "properties": {"addr:city": "London", "addr:housename": "West 12 Shopping Centre", "addr:postcode": "W12 8PP", "addr:street": "Shepherd's Bush Green", "addr:unit": "Unit 5, The Broadway", "amenity": "pharmacy", "branch": "London Shepherds Bush", "brand": "Boots", "brand:wikidata": "Q6123139", "brand:wikipedia": "en:Boots (company)", "contact:phone": "+44 20 8749 6271", "contact:website": "http://www.boots.com/stores/1029-london-shepherds-bush-w12-8pp", "dispensing": "yes", "fhrs:id": "345468", "fhrs:local_authority_id": "03043/0018/3/001", "healthcare": "pharmacy", "level": "0", "name": "Boots", "opening_hours": "Mo-Fr 08:00-20:00; Sa 09:00-17:00; Su 11:00-17:00", "opening_hours:covid19": "Mo-Sa 09:00-18:00, Su 11:00-17:00", "operator": "Boots UK Limited", "ref": "1029", "source:addr": "FHRS Open Data"}}, {"type": "Feature", "geometry": {"type": "Point", "coordinates": [-0.089658, 51.511254]}, "properties": {"addr:city": "London", "addr:housenumber": "80", "addr:postcode": "EC4N 6HL", "addr:street": "Cannon Street", "addr:unit": "Retail Unit", "amenity": "pharmacy", "branch": "London Cannon Street", "brand": "Boots", "brand:wikidata": "Q6123139", "brand:wikipedia": "en:Boots (company)", "contact:website": "http://www.boots.com/stores/1533-london-cannon-street-ec4n-6ae", "dispensing": "yes", "fhrs:id": "293712", "fhrs:local_authority_id": "PI/000002082", "healthcare": "pharmacy", "name": "Boots", "opening_hours": "Mo-Fr 07:00-19:00, Sa 10:00-18:00", "operator": "Boots UK Limited", "phone": "+44 20 7623 4676", "ref": "1533", "source:addr": "FHRS Open Data", "wheelchair": "yes"}}, {"type": "Feature", "geometry": {"type": "Point", "coordinates": [-0.1462232, 51.5064321]}, "properties": {"addr:city": "London", "addr:housenumber": "6", "addr:street": "Shepherd Market", "amenity": "pharmacy", "check_date": "2024-10-20", "healthcare": "pharmacy", "name": "The Pharmacy At Mayfair", "website": "https://www.pharmacymayfair.co.uk/"}}, {"type": "Feature", "geometry": {"type": "Point", "coordinates": [-0.2354576, 51.5065822]}, "properties": {"addr:city": "London", "addr:housenumber": "388", "addr:street": "Uxbridge Road", "amenity": "pharmacy", "check_date": "2025-12-13", "healthcare": "pharmacy", "name": "Pestle & Mortar Pharmacy", "phone": "+44 20 8743 3535"}}, {"type": "Feature", "geometry": {"type": "Point", "coordinates": [-0.1282957, 51.5486669]}, "properties": {"amenity": "pharmacy", "name": "York Pharmacy"}}, {"type": "Feature", "geometry": {"type": "Point", "coordinates": [0.2679101, 51.5686159]}, "properties": {"amenity": "pharmacy"}}, {"type": "Feature", "geometry": {"type": "Point", "coordinates": [-0.1269642, 51.5326329]}, "properties": {"addr:city": "London", "addr:housename": "Unit 19, St Pancras Station", "addr:postcode": "N1C 4QL", "addr:street": "Pancras Road", "addr:unit": "Unit 19", "amenity": "pharmacy", "branch": "London St Pancras Station", "brand": "Boots", "brand:wikidata": "Q6123139", "brand:wikipedia": "en:Boots UK", "building:levels": "0", "check_date": "2026-04-05", "check_date:opening_hours": "2026-04-05", "contact:phone": "+44 20 7833 0216", "contact:website": "http://www.boots.com/stores/885-london-st-pancras-station-n1c-4ql", "dispensing": "yes", "drive_through": "no", "fhrs:authority": "Camden", "fhrs:id": "425553", "fhrs:local_authority_id": "57614", "healthcare": "pharmacy", "level": "0", "name": "Boots", "opening_hours": "Mo-Fr 06:30-22:30; Sa 08:00-22:30; Su,PH 09:00-21:00", "operator": "Boots UK Limited", "ref": "885", "shop": "chemist", "source:addr": "FHRS Open Data", "source:addr:postcode": "http://www.boots.com/stores/885-london-st-pancras-station-n1c-4ql", "wheelchair": "yes"}}, {"type": "Feature", "geometry": {"type": "Point", "coordinates": [-0.0318955, 51.4770789]}, "properties": {"amenity": "pharmacy", "healthcare": "pharmacy", "name": "New Cross Pharmacy", "opening_hours": "Mo-Fr 08:30-19:30; Sa 09:00-16:00"}}, {"type": "Feature", "geometry": {"type": "Point", "coordinates": [-0.0749772, 51.5536682]}, "properties": {"addr:city": "London", "addr:housenumber": "75-77", "addr:postcode": "N16 8AD", "addr:street": "Stoke Newington Road", "amenity": "pharmacy", "fhrs:id": "469736", "healthcare": "pharmacy", "name": "ABC Pharmacy"}}, {"type": "Feature", "geometry": {"type": "Point", "coordinates": [-0.0765894, 51.3983737]}, "properties": {"amenity": "pharmacy", "brand": "Day Lewis Pharmacy", "brand:wikidata": "Q62563772", "healthcare": "pharmacy", "name": "Day Lewis Pharmacy", "wheelchair": "yes"}}, {"type": "Feature", "geometry": {"type": "Point", "coordinates": [-0.3537379, 51.5645793]}, "properties": {"addr:housenumber": "240", "addr:street": "Northolt Road", "amenity": "pharmacy", "check_date": "2024-12-28", "dispensing": "yes", "name": "Stratwicks", "phone": "+44 20 8864 1183"}}, {"type": "Feature", "geometry": {"type": "Point", "coordinates": [0.079487, 51.3792057]}, "properties": {"amenity": "pharmacy", "name": "Crofton Pharmacy"}}, {"type": "Feature", "geometry": {"type": "Point", "coordinates": [-0.3549808, 51.5633055]}, "properties": {"addr:street": "Northolt Road", "amenity": "pharmacy", "brand:wikidata": "Q6123139", "dispensing": "yes", "name": "Boots", "wheelchair": "yes"}}, {"type": "Feature", "geometry": {"type": "Point", "coordinates": [-0.2859617, 51.4773211]}, "properties": {"addr:city": "Richmond", "addr:floor": "G", "addr:housenumber": "19-21", "addr:postcode": "TW9 3PS", "addr:street": "Station Parade", "amenity": "pharmacy", "check_date": "2025-09-13", "dispensing": "yes", "healthcare": "pharmacy", "level": "0", "name": "Pyramid Pharmacy", "opening_hours": "Mo-Fr 09:00-19:00; Sa 09:00-18:00; Su off", "wheelchair": "limited"}}, {"type": "Feature", "geometry": {"type": "Point", "coordinates": [-0.1304051, 51.6333095]}, "properties": {"addr:city": "London", "addr:housenumber": "78", "addr:postcode": "N14 5PH", "addr:street": "Chase Side", "amenity": "pharmacy", "branch": "London Southgate", "brand": "Boots", "brand:wikidata": "Q6123139", "brand:wikipedia": "en:Boots (company)", "check_date": "2026-03-18", "contact:phone": "+44 20 8886 2003", "contact:website": "http://www.boots.com/stores/1086-london-southgate-n14-5ph", "dispensing": "yes", "fhrs:id": "316247", "fhrs:local_authority_id": "PI/000026201", "healthcare": "pharmacy", "name": "Boots", "operator": "Boots UK Limited", "ref": "1086", "shop": "chemist", "source:addr": "FHRS Open Data"}}, {"type": "Feature", "geometry": {"type": "Point", "coordinates": [-0.0212825, 51.4668311]}, "properties": {"amenity": "pharmacy", "healthcare": "pharmacy"}}, {"type": "Feature", "geometry": {"type": "Point", "coordinates": [0.055768, 51.4076227]}, "properties": {"addr:housenumber": "59", "addr:street": "Chislehurst Road", "amenity": "pharmacy", "check_date": "2025-03-26", "healthcare": "pharmacy", "name": "Chislehurst Pharmacy", "phone": "+44 20 8295 0017", "website": "https://www.chislehurstpharmacy.co.uk"}}, {"type": "Feature", "geometry": {"type": "Point", "coordinates": [-0.1205948, 51.3071717]}, "properties": {"addr:city": "Coulsdon", "addr:housenumber": "250", "addr:postcode": "CR5 1EA", "addr:street": "Coulsdon Road", "amenity": "pharmacy", "healthcare": "pharmacy", "name": "Holmes Pharmacy"}}, {"type": "Feature", "geometry": {"type": "Point", "coordinates": [-0.2296102, 51.4549994]}, "properties": {"addr:city": "London", "addr:housenumber": "337", "addr:postcode": "SW15 3BB", "addr:street": "Tildesley Road", "amenity": "pharmacy", "healthcare": "pharmacy", "name": "Ashburton Pharmacy"}}, {"type": "Feature", "geometry": {"type": "Point", "coordinates": [0.1740406, 51.396083]}, "properties": {"addr:city": "Swanley", "addr:housename": "Swanley Centre", "addr:postcode": "BR8 7TG", "addr:street": "London Road", "addr:unit": "25C", "amenity": "pharmacy", "brand": "Well Pharmacy", "brand:wikidata": "Q7726524", "brand:wikipedia": "en:Well Pharmacy", "check_date": "2024-06-04", "dispensing": "yes", "fhrs:id": "1158804", "healthcare": "pharmacy", "name": "Well Pharmacy", "old_name": "Co-op Pharmacy", "opening_hours": "Mo-Fr 08:00-19:00; Sa 09:00-13:00; Su off", "source:postcode": "codepoint_overlay", "website": "https://finder.well.co.uk/store/swanley-swanley-centre", "wheelchair": "yes"}}, {"type": "Feature", "geometry": {"type": "Point", "coordinates": [0.1825589, 51.4106056]}, "properties": {"addr:city": "Swanley", "addr:housenumber": "15", "addr:postcode": "BR8 7RB", "addr:street": "Main Road", "amenity": "pharmacy", "dispensing": "yes", "fhrs:id": "266457", "name": "Village Pharmacy", "opening_hours": "Mo,Tu,Th,Fr 09:00-18:30; We 09:00-18:00; Sa 09:00-13:00", "source:addr": "FHRS Open Data"}}, {"type": "Feature", "geometry": {"type": "Point", "coordinates": [0.3043101, 51.3664032]}, "properties": {"addr:city": "Longfield", "addr:country": "GB", "addr:housenumber": "2", "addr:postcode": "DA3 8JB", "addr:street": "The Row", "addr:village": "New Ash Green", "amenity": "pharmacy", "contact:phone": "+44 1474 873811", "dispensing": "yes", "fhrs:id": "917302", "healthcare": "pharmacy", "name": "Village Pharmacy", "website": "http://www.paydenspharmacy.co.uk/pharmacy_village-pharmacy-new-ash-green--dartford.asp"}}, {"type": "Feature", "geometry": {"type": "Point", "coordinates": [-0.2008807, 51.514099]}, "properties": {"addr:city": "London", "addr:housenumber": "239", "addr:street": "Westbourne Grove", "amenity": "pharmacy", "dispensing": "yes", "healthcare": "pharmacy", "name": "Baywood Chemist", "phone": "+44 20 7229 4553", "website": "https://www.nhs.uk/Services/pharmacies/MapsAndDirections/DefaultView.aspx?id=9483", "wheelchair": "yes"}}, {"type": "Feature", "geometry": {"type": "Point", "coordinates": [0.0947021, 51.4563241]}, "properties": {"amenity": "pharmacy", "healthcare": "pharmacy"}}, {"type": "Feature", "geometry": {"type": "Point", "coordinates": [-0.5043609, 51.3912177]}, "properties": {"addr:city": "Chertsey", "addr:housenumber": "100", "addr:postcode": "KT16 9AD", "addr:street": "Guildford Street", "amenity": "pharmacy", "dispensing": "yes", "drive_through": "no", "healthcare": "pharmacy", "name": "Honeycomb Pharmacy", "website": "https://www.honeycombpharmacy.co.uk/"}}, {"type": "Feature", "geometry": {"type": "Point", "coordinates": [-0.2065875, 51.5608771]}, "properties": {"addr:city": "London", "addr:housenumber": "91", "addr:postcode": "NW2 1HR", "addr:street": "Cricklewood Lane", "amenity": "pharmacy", "name": "Akshar Pharmacies", "phone": "+44 20 8452 4681"}}, {"type": "Feature", "geometry": {"type": "Point", "coordinates": [-0.1140656, 51.4805771]}, "properties": {"addr:housenumber": "26", "addr:street": "Clapham Road", "amenity": "pharmacy", "check_date": "2023-09-04", "dispensing": "yes", "drive_through": "no", "healthcare": "pharmacy", "name": "Vitellow Pharmacy", "opening_hours": "Mo-Fr 09:00-18:30; Sa 09:00-17:00"}}, {"type": "Feature", "geometry": {"type": "Point", "coordinates": [-0.1475048, 51.5776648]}, "properties": {"amenity": "pharmacy", "name": "Hayward Pharmacy"}}, {"type": "Feature", "geometry": {"type": "Point", "coordinates": [-0.1623904, 51.5537419]}, "properties": {"addr:city": "London", "addr:housenumber": "106", "addr:street": "Fleet Road", "amenity": "pharmacy", "healthcare": "pharmacy", "name": "Pharmacyrepublic"}}, {"type": "Feature", "geometry": {"type": "Point", "coordinates": [-0.0761401, 51.497949]}, "properties": {"addr:housenumber": "107", "addr:street": "Abbey Street", "amenity": "pharmacy", "healthcare": "pharmacy", "name": "Amadi Pharmacy"}}, {"type": "Feature", "geometry": {"type": "Point", "coordinates": [-0.0846795, 51.5108284]}, "properties": {"addr:city": "London", "addr:housenumber": "15", "addr:postcode": "EC3M 1BU", "addr:street": "Eastcheap", "amenity": "pharmacy", "brand": "Superdrug", "brand:wikidata": "Q7643261", "brand:wikipedia": "en:Superdrug", "contact:website": "https://www.superdrug.com/store/eastcheap", "fhrs:id": "295169", "healthcare": "pharmacy", "name": "Superdrug", "opening_hours": "Mo-Fr 07:30-19:30"}}, {"type": "Feature", "geometry": {"type": "Point", "coordinates": [-0.0837128, 51.6511209]}, "properties": {"addr:city": "Enfield", "addr:housenumber": "30-32", "addr:postcode": "EN2 6SN", "addr:street": "Palace Gardens", "amenity": "pharmacy", "branch": "London Enfield Place Gardens", "brand": "Boots", "brand:wikidata": "Q6123139", "brand:wikipedia": "en:Boots (company)", "contact:phone": "+44 20 8367 1211", "contact:website": "http://www.boots.com/stores/768-london-enfield-place-gardens-en2-6sn", "dispensing": "yes", "fhrs:authority": "Enfield", "fhrs:id": "316945", "fhrs:local_authority_id": "PI/000092431", "healthcare": "pharmacy", "name": "Boots", "operator": "Boots UK Limited", "ref": "768", "shop": "chemist", "source:addr": "FHRS Open Data", "wheelchair": "yes"}}, {"type": "Feature", "geometry": {"type": "Point", "coordinates": [-0.0783565, 51.6522191]}, "properties": {"addr:street": "Colman Parade", "amenity": "pharmacy", "name": "Healthfare"}}, {"type": "Feature", "geometry": {"type": "Point", "coordinates": [0.032609, 51.6071114]}, "properties": {"amenity": "pharmacy", "name": "Mayor's"}}, {"type": "Feature", "geometry": {"type": "Point", "coordinates": [-0.09532, 51.5704773]}, "properties": {"addr:city": "London", "addr:housenumber": "274", "addr:postcode": "N4 2HE", "addr:street": "Green Lanes", "amenity": "pharmacy", "brand": "Rowlands Pharmacy", "brand:wikidata": "Q62663235", "dispensing": "yes", "drive_through": "no", "healthcare": "pharmacy", "name": "Rowlands Pharmacy", "website": "https://rowlandspharmacy.co.uk"}}, {"type": "Feature", "geometry": {"type": "Point", "coordinates": [-0.2517444, 51.5598726]}, "properties": {"amenity": "pharmacy", "brand": "Clockwork Pharmacy", "brand:wikidata": "Q109789537", "dispensing": "no", "healthcare": "pharmacy", "name": "Clockwork Pharmacy"}}, {"type": "Feature", "geometry": {"type": "Point", "coordinates": [-0.0947656, 51.4372066]}, "properties": {"amenity": "pharmacy", "healthcare": "pharmacy", "name": "Rosendale Pharmacy"}}, {"type": "Feature", "geometry": {"type": "Point", "coordinates": [-0.385527, 51.68956]}, "properties": {"amenity": "pharmacy", "check_date": "2023-11-14", "healthcare": "pharmacy", "name": "Park Pharmacy"}}, {"type": "Feature", "geometry": {"type": "Point", "coordinates": [-0.4825808, 51.4251513]}, "properties": {"amenity": "pharmacy", "dispensing": "yes", "drive_through": "no", "healthcare": "pharmacy", "name": "Hive Pharmacy", "operator": "Hive"}}, {"type": "Feature", "geometry": {"type": "Point", "coordinates": [-0.1245846, 51.5779721]}, "properties": {"amenity": "pharmacy", "check_date": "2025-08-09", "healthcare": "pharmacy", "name": "Beena Pharmacy"}}, {"type": "Feature", "geometry": {"type": "Point", "coordinates": [-0.2994517, 51.3640066]}, "properties": {"amenity": "pharmacy", "brand:wikidata": "Q6123139", "name": "Boots", "operator": "Boots", "website": "https://www.boots.com/stores/5731-london-chessington-kt9-1ql"}}, {"type": "Feature", "geometry": {"type": "Point", "coordinates": [-0.3033209, 51.5125075]}, "properties": {"amenity": "pharmacy", "brand": "Superdrug", "brand:wikidata": "Q7643261", "brand:wikipedia": "en:Superdrug", "check_date": "2025-12-12", "contact:website": "https://www.superdrug.com/store/ealing", "healthcare": "pharmacy", "level": "0", "name": "Superdrug", "wheelchair": "yes"}}, {"type": "Feature", "geometry": {"type": "Point", "coordinates": [-0.1268577, 51.3795251]}, "properties": {"addr:city": "Croydon", "addr:housenumber": "10", "addr:postcode": "CR0 4YJ", "addr:street": "Daniell Way", "addr:unit": "F", "amenity": "pharmacy", "brand": "Boots", "brand:wikidata": "Q6123139", "brand:wikipedia": "en:Boots (company)", "fhrs:authority": "Croydon", "fhrs:id": "293493", "healthcare": "pharmacy", "name": "Boots", "survey:date": "2018-10-27", "website": "https://www.boots.com/stores/6406-croydon-valley-plaza-retail-park-cr0-4yj"}}, {"type": "Feature", "geometry": {"type": "Point", "coordinates": [-0.4085574, 51.3348951]}, "properties": {"addr:city": "Cobham", "addr:housenumber": "168", "addr:postcode": "KT11 1HT", "addr:street": "Portsmouth Road", "amenity": "pharmacy", "contact:phone": "+44 1932 862965", "contact:website": "https://www.cobhampharmacy.co.uk", "dispensing": "yes", "healthcare": "pharmacy", "name": "Cobham Pharmacy", "opening_hours": "Mo-Fr 08:30-19:00"}}, {"type": "Feature", "geometry": {"type": "Point", "coordinates": [-0.1562871, 51.4653649]}, "properties": {"addr:city": "London", "addr:housenumber": "123", "addr:street": "Lavender Hill", "alt_name": "Day Lewis Pharmacy & Mobility Centre", "amenity": "pharmacy", "brand": "Day Lewis Pharmacy", "brand:wikidata": "Q62563772", "healthcare": "pharmacy", "name": "Day Lewis Pharmacy"}}, {"type": "Feature", "geometry": {"type": "Point", "coordinates": [-0.1503938, 51.4668334]}, "properties": {"addr:city": "London", "addr:housenumber": "12", "addr:postcode": "SW8 3RX", "addr:street": "Queenstown Road", "amenity": "pharmacy", "fhrs:authority": "Lambeth", "fhrs:id": "483392", "fhrs:inspectiondate": "2009-02-27", "fhrs:rating": "Exempt", "healthcare": "pharmacy", "name": "Queen's"}}, {"type": "Feature", "geometry": {"type": "Point", "coordinates": [-0.1769988, 51.4135732]}, "properties": {"addr:city": "London", "addr:postcode": "SW19 2TY", "addr:street": "Tandem Way", "addr:unit": "9", "amenity": "pharmacy", "brand": "Boots", "brand:wikidata": "Q6123139", "brand:wikipedia": "en:Boots (company)", "fhrs:id": "849404", "healthcare": "pharmacy", "name": "Boots", "website": "https://www.boots.com/stores/6415-london-colliers-wood-sw19-2ty", "wheelchair": "yes"}}, {"type": "Feature", "geometry": {"type": "Point", "coordinates": [0.0679779, 51.5619413]}, "properties": {"addr:city": "Ilford", "addr:housenumber": "149", "addr:postcode": "IG1 4PU", "addr:street": "Cranbrook Road", "amenity": "pharmacy", "healthcare": "pharmacy", "name": "Rohpharm Pharmacy", "website": "https://www.rohpharmpharmacy.co.uk/branches/ilford/"}}, {"type": "Feature", "geometry": {"type": "Point", "coordinates": [-0.1636383, 51.5191279]}, "properties": {"addr:city": "London", "addr:housenumber": "56", "addr:street": "Crawford Street", "amenity": "pharmacy", "check_date": "2023-07-07", "healthcare": "pharmacy", "name": "Seymour Pharmacy", "website": "https://www.pharmacyopeningtimes.co.uk/listing-6091.html"}}, {"type": "Feature", "geometry": {"type": "Point", "coordinates": [-0.2906786, 51.516892]}, "properties": {"addr:city": "London", "addr:housenumber": "15", "addr:postcode": "W5 3HU", "addr:street": "Queens Parade", "amenity": "pharmacy", "dispensing": "yes", "drive_through": "no", "email": "megson.pharmacy@nhs.net", "healthcare": "pharmacy", "name": "Megsons", "opening_hours": "Mo-Fr 09:00-18:00", "phone": "+44 20 8997 1100"}}, {"type": "Feature", "geometry": {"type": "Point", "coordinates": [-0.3057517, 51.4972883]}, "properties": {"addr:floor": "G", "addr:housenumber": "186", "addr:street": "South Ealing Road", "amenity": "pharmacy", "check_date": "2025-11-02", "dispensing": "yes", "healthcare": "pharmacy", "level": "0", "name": "South Ealing Pharmacy", "opening_hours": "Mo-Fr 08:30-18:30; Sa 09:00-16:00", "phone": "+44 20 8560 3532", "website": "https://southealingpharmacy.co.uk/"}}, {"type": "Feature", "geometry": {"type": "Point", "coordinates": [-0.1810289, 51.3658048]}, "properties": {"addr:city": "Sutton", "addr:housenumber": "86", "addr:postcode": "SM1 4HY", "addr:street": "Westmead Road", "amenity": "pharmacy", "check_date": "2025-08-18", "check_date:opening_hours": "2025-08-18", "dispensing": "yes", "drive_through": "no", "healthcare": "pharmacy", "name": "Sutton Pharmacy", "opening_hours": "Mo,Tu,Th,Fr 09:00-19:00; We 09:00-18:00; Sa 09:00-13:00", "source": "survey"}}, {"type": "Feature", "geometry": {"type": "Point", "coordinates": [-0.1933212, 51.3633272]}, "properties": {"addr:city": "Sutton", "addr:housenumber": "109-111", "addr:postcode": "SM1 1JG", "addr:street": "High Street", "amenity": "pharmacy", "brand": "Boots", "brand:wikidata": "Q6123139", "brand:wikipedia": "en:Boots UK", "dispensing": "yes", "healthcare": "pharmacy", "name": "Boots", "opening_hours": "Mo-Sa 09:30-18:00; Su 10:30-16:00", "source": "survey;code-point open", "website": "https://www.boots.com/stores/858-sutton-surrey-high-street-sm1-1jg"}}, {"type": "Feature", "geometry": {"type": "Point", "coordinates": [-0.1493001, 51.3583419]}, "properties": {"amenity": "pharmacy", "brand": "Boots", "brand:wikidata": "Q6123139", "brand:wikipedia": "en:Boots UK", "healthcare": "pharmacy", "name": "Boots", "website": "https://www.boots.com/stores/1541-wallington-square-sm6-8rg"}}, {"type": "Feature", "geometry": {"type": "Point", "coordinates": [-0.0659393, 51.6227794]}, "properties": {"amenity": "pharmacy", "healthcare": "pharmacy", "name": "Skot", "wheelchair": "limited"}}, {"type": "Feature", "geometry": {"type": "Point", "coordinates": [-0.0808119, 51.6369876]}, "properties": {"addr:housenumber": "20", "addr:postcode": "EN1 2HB", "addr:street": "Bush Hill Parade", "amenity": "pharmacy", "dispensing": "yes", "name": "Lamis"}}, {"type": "Feature", "geometry": {"type": "Point", "coordinates": [-0.3317776, 51.3070079]}, "properties": {"amenity": "pharmacy", "brand": "Day Lewis Pharmacy", "brand:wikidata": "Q62563772", "dispensing": "yes", "healthcare": "pharmacy", "name": "Day Lewis Pharmacy", "source": "P142-0286"}}, {"type": "Feature", "geometry": {"type": "Point", "coordinates": [-0.2865081, 51.4773737]}, "properties": {"addr:city": "Richmond", "addr:floor": "G", "addr:housenumber": "3", "addr:postcode": "TW9 3PS", "addr:street": "Station Parade", "alt_name": "Kew Pharmacy", "amenity": "pharmacy", "check_date": "2025-05-22", "dispensing": "yes", "healthcare": "pharmacy", "level": "0", "name": "Q Pharmacy", "source": "http://www.nhs.uk/Services/pharmacies/Overview/DefaultView.aspx?id=4884", "website": "http://www.nhs.uk/Services/pharmacies/Overview/DefaultView.aspx?id=4884"}}, {"type": "Feature", "geometry": {"type": "Point", "coordinates": [-0.2380906, 51.3948753]}, "properties": {"amenity": "pharmacy", "automatic_door": "no", "brand": "MediPharmacy Group", "door": "hinged", "healthcare": "pharmacy", "name": "Griffiths Pharmacy", "wheelchair": "no"}}, {"type": "Feature", "geometry": {"type": "Point", "coordinates": [-0.0968941, 51.5765681]}, "properties": {"amenity": "pharmacy", "brand": "Superdrug", "brand:wikidata": "Q7643261", "brand:wikipedia": "en:Superdrug", "contact:website": "https://www.superdrug.com/store/harringay", "fhrs:id": "422112", "healthcare": "pharmacy", "name": "Superdrug"}}, {"type": "Feature", "geometry": {"type": "Point", "coordinates": [-0.3285281, 51.295824]}, "properties": {"addr:city": "Leatherhead", "addr:postcode": "KT22 8AH", "addr:street": "The Swan Centre", "amenity": "pharmacy", "brand": "Boots", "brand:wikidata": "Q6123139", "deaf:description:en": "No Hearing working LOOPs: 2012-01-18", "dispensing": "yes", "healthcare": "pharmacy", "name": "Boots", "source:addr:postcode": "ons_uprn_lookup", "website": "https://www.boots.com/stores/1403-leatherhead-high-street-kt22-8ah", "wheelchair": "yes", "wheelchair:description": "Automatic sliding doors. Pharmacy counter high. No Hearing Loop visible or detected at Pharmacy on last visit [9/2016]"}}, {"type": "Feature", "geometry": {"type": "Point", "coordinates": [-0.5056098, 51.3381966]}, "properties": {"amenity": "pharmacy", "brand": "Cohens Chemist", "brand:wikidata": "Q107998495", "dispensing": "yes", "drive_through": "no", "healthcare": "pharmacy", "name": "Cohens Chemist"}}, {"type": "Feature", "geometry": {"type": "Point", "coordinates": [-0.3547024, 51.2956452]}, "properties": {"addr:city": "Fetcham, Leatherhead", "addr:housenumber": "147", "addr:postcode": "KT22 9HX", "addr:street": "Cobham Road", "amenity": "pharmacy", "brand": "Boots", "brand:wikidata": "Q6123139", "brand:wikipedia": "en:Boots UK", "healthcare": "pharmacy", "name": "Boots", "phone": "+44 1372 372723", "wheelchair": "yes", "wheelchair:description": "Slope up across forecourt from footway. Powered door opens inward. Portable Loop available but often hidden"}}, {"type": "Feature", "geometry": {"type": "Point", "coordinates": [-0.3815594, 51.5916748]}, "properties": {"addr:housenumber": "147", "amenity": "pharmacy", "dispensing": "yes", "name": "GOR Pharmacy"}}, {"type": "Feature", "geometry": {"type": "Point", "coordinates": [-0.4344599, 51.6294701]}, "properties": {"addr:city": "Northwood", "addr:housenumber": "24", "addr:postcode": "HA6 2HJ", "addr:street": "Main Avenue", "amenity": "pharmacy", "dispensing": "yes", "drive_through": "no", "email": "loomrose.pharmacy@nhs.net", "fax": "+44 1923 827711", "healthcare": "pharmacy", "name": "Loomrose Ltd Pharmacy", "nhs": "yes", "phone": "+44 1923 827577", "website": "https://loomrosepharmacy.co.uk/"}}, {"type": "Feature", "geometry": {"type": "Point", "coordinates": [-0.1289402, 51.649055]}, "properties": {"addr:city": "London", "addr:housenumber": "195", "addr:postcode": "N14 4XA", "addr:street": "Bramley Road", "amenity": "pharmacy", "contact:facebook": "parkviewpharmacy", "contact:instagram": "parkviewpharmacy", "dispensing": "yes", "healthcare": "pharmacy", "name": "Parkview Pharmacy", "opening_hours": "Mo-Fr 09:00-19:00; Sa 09:00-17:00", "website": "https://www.parkviewpharmacy.co.uk"}}, {"type": "Feature", "geometry": {"type": "Point", "coordinates": [-0.3989237, 51.5781947]}, "properties": {"addr:city": "Pinner", "addr:housenumber": "169-171", "addr:postcode": "HA5 1QR", "addr:street": "Field End Road", "amenity": "pharmacy", "branch": "Eastcote 169-171 Field End Road", "brand": "Boots", "brand:wikidata": "Q6123139", "brand:wikipedia": "en:Boots UK", "contact:phone": "+44 20 8866 3191", "contact:website": "https://www.boots.com/stores/1413-eastcote-field-end-ha5-1qr", "dispensing": "yes", "healthcare": "pharmacy", "name": "Boots", "operator": "Boots UK Limited", "ref": "1413", "website": "https://www.boots.com/stores/1413-eastcote-field-end-ha5-1qr"}}, {"type": "Feature", "geometry": {"type": "Point", "coordinates": [-0.317918, 51.6008932]}, "properties": {"amenity": "pharmacy", "healthcare": "pharmacy", "name": "ProCare Pharmacy"}}, {"type": "Feature", "geometry": {"type": "Point", "coordinates": [6.45e-05, 51.5416494]}, "properties": {"addr:city": "London", "addr:housenumber": "54", "addr:postcode": "E15 1XE", "addr:street": "The Mall", "amenity": "pharmacy", "fhrs:id": "1844768", "fhrs:local_authority_id": "77650/0054/0/000", "healthcare": "pharmacy", "name": "Osbon Pharmacy", "source:addr": "FHRS Open Data", "wheelchair": "yes"}}, {"type": "Feature", "geometry": {"type": "Point", "coordinates": [-0.0009642, 51.5416185]}, "properties": {"addr:city": "London", "addr:housenumber": "31-32", "addr:postcode": "E15 1XD", "addr:street": "The Mall", "amenity": "pharmacy", "branch": "London Stratford", "brand": "Boots", "brand:wikidata": "Q6123139", "brand:wikipedia": "en:Boots (company)", "contact:website": "http://www.boots.com/stores/714-london-streetratford-e15-1xd", "dispensing": "yes", "fhrs:id": "641144", "fhrs:local_authority_id": "77650/0031/0/000", "healthcare": "pharmacy", "medical_supply": "yes", "name": "Boots", "opening_hours": "Mo-Fr 08:00-20:00; Sa 09:00-19:00; Su 11:00-17:00", "operator": "Boots UK Limited", "phone": "+44 20 8534 2272", "ref": "714", "source:addr": "FHRS Open Data", "wheelchair": "yes"}}, {"type": "Feature", "geometry": {"type": "Point", "coordinates": [-0.1406068, 51.4972658]}, "properties": {"addr:city": "London", "addr:floor": "Ground Floor", "addr:housenumber": "5", "addr:postcode": "SW1E 5JE", "addr:street": "Cathedral Walk", "addr:unit": "Unit 13", "amenity": "pharmacy", "branch": "London Victoria Cardinal Place", "brand": "Boots", "brand:wikidata": "Q6123139", "brand:wikipedia": "en:Boots (company)", "check_date": "2026-02-21", "contact:phone": "+44 20 7828 6013", "contact:website": "http://www.boots.com/stores/775-london-victoria-cardinal-place-sw1e-5jh", "dispensing": "yes", "fhrs:authority": "Westminster", "fhrs:id": "414591", "fhrs:local_authority_id": "05/00123/COMM", "healthcare": "pharmacy", "name": "Boots", "operator": "Boots UK Limited", "ref": "775", "source:addr": "FHRS Open Data", "wheelchair": "yes"}}, {"type": "Feature", "geometry": {"type": "Point", "coordinates": [0.0421737, 51.5384599]}, "properties": {"amenity": "pharmacy", "healthcare": "pharmacy", "name": "Plashet Pharmacy"}}, {"type": "Feature", "geometry": {"type": "Point", "coordinates": [-0.0723723, 51.572437]}, "properties": {"addr:city": "London", "addr:housenumber": "170-172", "addr:postcode": "N16 6QX", "addr:street": "Stamford Hill", "amenity": "pharmacy", "brand": "Day Lewis Pharmacy", "brand:wikidata": "Q62563772", "dispensing": "no", "fhrs:id": "469307", "fhrs:local_authority_id": "22950", "healthcare": "pharmacy", "name": "Day Lewis Pharmacy", "source:addr": "FHRS Open Data"}}, {"type": "Feature", "geometry": {"type": "Point", "coordinates": [-0.1819767, 51.4937648]}, "properties": {"addr:city": "London", "addr:housenumber": "107-109", "addr:street": "Gloucester Road", "amenity": "pharmacy", "check_date": "2025-09-16", "check_date:opening_hours": "2025-09-16", "healthcare": "pharmacy", "name": "Bliss Pharmacy", "opening_hours:signed": "no"}}, {"type": "Feature", "geometry": {"type": "Point", "coordinates": [-0.1841298, 51.4807472]}, "properties": {"addr:city": "London", "addr:housenumber": "513", "addr:street": "King's Road", "amenity": "pharmacy", "brand": "Jhoots Pharmacy", "brand:wikidata": "Q91440588", "dispensing": "yes", "healthcare": "pharmacy", "name": "Jhoots Pharmacy", "phone": "+44 20 7352 9954", "website": "https://www.jhootspharmacy.co.uk/"}}, {"type": "Feature", "geometry": {"type": "Point", "coordinates": [-0.0391319, 51.5558145]}, "properties": {"addr:city": "London", "addr:housenumber": "199-201", "addr:postcode": "E5 0HD", "addr:street": "Rushmore Road", "amenity": "pharmacy", "fhrs:id": "606415", "healthcare": "pharmacy", "name": "Bees Pharmacy"}}, {"type": "Feature", "geometry": {"type": "Point", "coordinates": [-0.0103611, 51.5267217]}, "properties": {"addr:city": "London", "addr:housename": "Tesco Stores Ltd", "addr:postcode": "E3 3DA", "addr:street": "Hancock Road", "amenity": "pharmacy", "dispensing": "yes", "healthcare": "pharmacy", "name": "Tesco Pharmacy", "name:fa": "\u062f\u0627\u0631\u0648\u062e\u0627\u0646\u0647 \u062a\u0633\u06a9\u0648", "opening_hours": "Mo 08:00-22:30; Tu,We,Th,Fr,Sa 06:30-22:30; Su 10:00-16:00", "wheelchair": "yes"}}, {"type": "Feature", "geometry": {"type": "Point", "coordinates": [-0.3063915, 51.5128026]}, "properties": {"addr:city": "London", "addr:floor": "G", "addr:housenumber": "35", "addr:postcode": "W5 5AH", "addr:street": "New Broadway", "amenity": "pharmacy", "brand:wikidata": "Q7428189", "check_date": "2025-10-03", "level": "0", "name": "Savers", "opening_hours": "Mo-Sa 09:00-18:30; Su 10:00-17:00", "wheelchair": "yes"}}, {"type": "Feature", "geometry": {"type": "Point", "coordinates": [-0.2257144, 51.5723567]}, "properties": {"addr:city": "London", "addr:housename": "Brent South Shopping Park", "addr:postcode": "NW2 1LJ", "addr:street": "Tilling Road", "alt_name": "Lloyds Pharmacy", "amenity": "pharmacy", "name": "Health Village"}}, {"type": "Feature", "geometry": {"type": "Point", "coordinates": [-0.0397472, 51.5177433]}, "properties": {"addr:city": "London", "addr:housenumber": "50", "addr:postcode": "E1 3NN", "addr:street": "Ben Jonson Road", "amenity": "pharmacy", "healthcare": "pharmacy", "name": "Sinclairs Pharmacy"}}, {"type": "Feature", "geometry": {"type": "Point", "coordinates": [-0.3951797, 51.4757093]}, "properties": {"addr:city": "Hounslow", "addr:housenumber": "2", "addr:postcode": "TW5 9AX", "addr:street": "Parkland Parade", "amenity": "pharmacy", "contact:phone": "+442085700664", "drive_through": "no", "healthcare": "pharmacy", "name": "Medico Pharmacy", "website": "https://www.medicopharmacy.co.uk/"}}, {"type": "Feature", "geometry": {"type": "Point", "coordinates": [-0.3741038, 51.6454468]}, "properties": {"addr:city": "Bushey", "addr:housename": "Bushey Medical Centre", "addr:postcode": "WD23 2NN", "addr:street": "London Road", "amenity": "pharmacy", "dispensing": "yes", "drive_through": "no", "healthcare": "pharmacy", "name": "Abell Chemist"}}, {"type": "Feature", "geometry": {"type": "Point", "coordinates": [-0.1469508, 51.4197251]}, "properties": {"addr:city": "London", "addr:housenumber": "270", "addr:postcode": "SW16 6NU", "addr:street": "Mitcham Lane", "amenity": "pharmacy", "check_date": "2026-04-07", "dispensing": "yes", "fhrs:id": "296677", "healthcare": "pharmacy", "name": "Fairoak Pharmacy", "opening_hours": "Mo,Tu,Th,Fr 09:00-19:00; We 09:00-13:00"}}, {"type": "Feature", "geometry": {"type": "Point", "coordinates": [0.1471541, 51.5626942]}, "properties": {"amenity": "pharmacy", "healthcare": "pharmacy"}}, {"type": "Feature", "geometry": {"type": "Point", "coordinates": [-0.1490397, 51.5164535]}, "properties": {"addr:city": "London", "addr:housenumber": "50-54", "addr:postcode": "W1U 2AU", "addr:street": "Wigmore Street", "amenity": "pharmacy", "contact:website": "http://www.johnbellcroyden.co.uk/", "healthcare": "pharmacy", "name": "John Bell & Croyden", "opening_hours": "Mo-Sa 09:30-20:00; Su 12:00-18:00", "website": "https://johnbellcroyden.co.uk/", "wikidata": "Q23891218"}}, {"type": "Feature", "geometry": {"type": "Point", "coordinates": [0.090046, 51.4988495]}, "properties": {"addr:city": "London", "addr:housenumber": "6", "addr:postcode": "SE28 0NG", "addr:street": "Thames Reach", "addr:suburb": "Thamesmead", "amenity": "pharmacy", "dispensing": "yes", "fhrs:id": "695583", "fhrs:local_authority_id": "PI/000188879", "healthcare": "pharmacy", "name": "First Care Pharmacy"}}, {"type": "Feature", "geometry": {"type": "Point", "coordinates": [-0.3363829, 51.5807358]}, "properties": {"amenity": "pharmacy", "brand": "Boots", "brand:wikidata": "Q6123139", "brand:wikipedia": "en:Boots (company)", "check_date": "2025-05-09", "dispensing": "yes", "healthcare": "pharmacy", "level": "0", "name": "Boots", "website": "https://www.boots.com/stores/1643-harrowst-anns-ha1-1as", "wheelchair": "yes"}}, {"type": "Feature", "geometry": {"type": "Point", "coordinates": [-0.3538649, 51.5641802]}, "properties": {"addr:housenumber": "251", "addr:street": "Northolt Road", "amenity": "pharmacy", "check_date": "2023-09-29", "dispensing": "yes", "name": "S&A Pharmacy", "phone": "+44 20 8422 3006"}}, {"type": "Feature", "geometry": {"type": "Point", "coordinates": [-0.3331603, 51.5817571]}, "properties": {"amenity": "pharmacy", "brand": "Superdrug", "brand:wikidata": "Q7643261", "brand:wikipedia": "en:Superdrug", "check_date": "2025-12-20", "contact:website": "https://www.superdrug.com/store/harrow", "healthcare": "pharmacy", "name": "Superdrug"}}, {"type": "Feature", "geometry": {"type": "Point", "coordinates": [-0.0097939, 51.5089138]}, "properties": {"addr:city": "London", "addr:housenumber": "257-259", "addr:postcode": "E14 0BE", "addr:street": "Poplar High Street", "amenity": "pharmacy", "check_date": "2023-07-17", "dispensing": "yes", "fhrs:id": "362583", "healthcare": "pharmacy", "level": "0", "medical_supply": "yes", "name": "Britannia Pharmacy", "shop": "chemist", "source": "survey", "source:addr:housenumber": "interpolation"}}, {"type": "Feature", "geometry": {"type": "Point", "coordinates": [0.3000131, 51.3970804]}, "properties": {"addr:housenumber": "59", "addr:postcode": "DA3 7QA", "addr:street": "Station Road", "amenity": "pharmacy", "dispensing": "yes", "healthcare": "pharmacy", "name": "Hodgson Pharmacy", "website": "https://www.hodgsonpharmacy.com/"}}, {"type": "Feature", "geometry": {"type": "Point", "coordinates": [0.2998572, 51.3979763]}, "properties": {"addr:housenumber": "18", "addr:postcode": "DA3 7QD", "addr:street": "Station Road", "amenity": "pharmacy", "check_date": "2012-01-01", "dispensing": "yes", "healthcare": "pharmacy", "old_name": "Lloyds Pharmacy"}}, {"type": "Feature", "geometry": {"type": "Point", "coordinates": [-0.0269898, 51.5943169]}, "properties": {"amenity": "pharmacy", "source": "survey"}}, {"type": "Feature", "geometry": {"type": "Point", "coordinates": [0.0099023, 51.5416928]}, "properties": {"addr:city": "London", "addr:housenumber": "10", "addr:postcode": "E15 4ES", "addr:street": "Vicarage Lane", "amenity": "pharmacy", "check_date": "2024-09-18", "dispensing": "yes", "drive_through": "no", "healthcare": "pharmacy", "name": "Vicarage Pharmacy", "opening_hours": "Mo-We 09:00-19:30; Th 09:00-19:00; Sa 09:00-17:00; Fr 09:00-19:30", "wheelchair": "yes"}}, {"type": "Feature", "geometry": {"type": "Point", "coordinates": [0.026359, 51.5431024]}, "properties": {"amenity": "pharmacy"}}, {"type": "Feature", "geometry": {"type": "Point", "coordinates": [-0.42253, 51.6513199]}, "properties": {"amenity": "pharmacy", "name": "Bridgewater Pharmacy"}}, {"type": "Feature", "geometry": {"type": "Point", "coordinates": [-0.2068679, 51.4964602]}, "properties": {"addr:housenumber": "382", "addr:street": "Kensington High Street", "amenity": "pharmacy", "healthcare": "pharmacy", "name": "H Lloyd Chemist", "note": "On ground floor of hotel building", "phone": "+44 20 7603 4761", "source": "photograph", "website": "https://www.nhs.uk/Services/pharmacies/Overview/DefaultView.aspx?id=8243"}}, {"type": "Feature", "geometry": {"type": "Point", "coordinates": [-0.2787048, 51.597623]}, "properties": {"amenity": "pharmacy"}}, {"type": "Feature", "geometry": {"type": "Point", "coordinates": [-0.2148313, 51.6471238]}, "properties": {"amenity": "pharmacy", "name": "Prima Pharmacy"}}, {"type": "Feature", "geometry": {"type": "Point", "coordinates": [-0.0249231, 51.4570488]}, "properties": {"amenity": "pharmacy", "healthcare": "pharmacy"}}, {"type": "Feature", "geometry": {"type": "Point", "coordinates": [0.3074853, 51.6221728]}, "properties": {"addr:housenumber": "27", "addr:postcode": "CM15 8AG", "addr:street": "Shenfield Road", "amenity": "pharmacy", "check_date": "2025-07-02", "healthcare": "pharmacy", "name": "Burntwood Pharmacy"}}, {"type": "Feature", "geometry": {"type": "Point", "coordinates": [-0.201589, 51.6553018]}, "properties": {"addr:city": "Barnet", "addr:housenumber": "142", "addr:postcode": "EN5 5XP", "addr:street": "High Street", "amenity": "pharmacy", "branch": "Barnet High Street", "brand": "Boots", "brand:wikidata": "Q6123139", "brand:wikipedia": "en:Boots (company)", "check_date": "2026-02-17", "contact:phone": "+44 20 8449 0055", "dispensing": "yes", "healthcare": "pharmacy", "name": "Boots", "opening_hours": "Mo-Fr 08:30-18:00; Sa 09:00-18:00; Su 10:30-16:30", "operator": "Boots UK Limited", "ref": "798", "source": "gps; photograph; local knowledge", "website": "https://www.boots.com/stores/798-barnet-high-street-en5-5xp"}}, {"type": "Feature", "geometry": {"type": "Point", "coordinates": [-0.1682955, 51.3729739]}, "properties": {"addr:city": "Carshalton", "addr:housenumber": "40", "addr:postcode": "SM5 2DP", "addr:street": "Green Wrythe Lane", "amenity": "pharmacy", "healthcare": "pharmacy", "name": "Kamsons Pharmacy", "opening_hours": "Mo-Fr 09:00-18:00; Sa 09:00-13:00; Su off", "source": "survey;code-point open", "survey:date": "2018-11-22"}}, {"type": "Feature", "geometry": {"type": "Point", "coordinates": [-0.0943446, 51.3482127]}, "properties": {"addr:city": "South Croydon", "addr:housenumber": "7", "addr:parentstreet": "Sanderstead Road", "addr:postcode": "CR2 0PH", "addr:street": "Station Parade", "amenity": "pharmacy", "healthcare": "pharmacy", "name": "Medipharmacy"}}, {"type": "Feature", "geometry": {"type": "Point", "coordinates": [0.0059396, 51.5006617]}, "properties": {"amenity": "pharmacy", "check_date": "2025-09-01", "check_date:opening_hours": "2025-09-01", "healthcare": "pharmacy", "level": "0", "name": "Mangal Pharmacy", "opening_hours": "Mo-Fr 08:30-19:00; Sa 10:00-19:00; Su 14:00-18:00", "source": "survey", "wheelchair": "yes"}}, {"type": "Feature", "geometry": {"type": "Point", "coordinates": [-0.138497, 51.5342277]}, "properties": {"amenity": "pharmacy", "healthcare": "pharmacy"}}, {"type": "Feature", "geometry": {"type": "Point", "coordinates": [-0.1700938, 51.3569313]}, "properties": {"addr:city": "Carshalton", "addr:housenumber": "2b", "addr:postcode": "SM5 3LF", "addr:street": "Beeches Avenue", "amenity": "pharmacy", "dispensing": "yes", "name": "Beeches Pharmacy", "source": "survey", "survey:date": "2018-09-29"}}, {"type": "Feature", "geometry": {"type": "Point", "coordinates": [-0.1942103, 51.480676]},